state_abbr,county,latitude,longitude,total_population,poverty_universe,poverty_below,poverty_rate,no_population,total_reported_crime_Violent Crime,total_reported_crime_Property Crime,property_crime_per_100k_Property Crime,violent_crime_per_100k_Violent Crime
NY,WYOMING,42.535408,-78.42481,39980,37280,3968,0.106437768240343,false,54.5,195,487.743871935968,136.31815907954
NY,OTSEGO,42.69997,-74.92187,59738,54799,7741,0.141261701855873,false,58,483,808.53058354816,97.0906290803174
KS,DONIPHAN,39.788502,-95.147225,7492,6755,662,0.0980014803849001,false,18,63,840.896956753871,240.256273358249
AL,WALKER,33.832783,-87.276886,64886,63567,11429,0.17979454748533,false,170,1398,2154.54797645101,261.997965662855
TN,RHEA,35.600587,-84.949552,33299,32574,4998,0.153435255111439,false,49,285,855.881558004745,147.151566113097
KY,HARLAN,36.859223,-83.221497,26185,25446,6930,0.272341428908276,false,10,68,259.690662593088,38.1898033225129
CA,DEL NORTE,41.754265,-124.20122,27293,24952,2900,0.116223148445014,false,152,633,2319.27600483641,556.919356611585
TX,SMITH,32.375106,-95.268743,238014,231542,28262,0.122059928652253,false,800.5,3437,1444.03270395859,336.324754006067
VA,LUNENBURG,36.945757,-78.242313,11990,11040,1758,0.159239130434783,false,21,41,341.951626355296,175.145954962469
WI,RICHLAND,43.334644,-90.3864,17229,16914,2447,0.144673051909661,false,20,64,371.466713100006,116.083347843752
KS,HARVEY,38.051147,-97.34464,33823,32564,2592,0.0795971010932318,false,155,472,1395.50010347988,458.268042456317
NM,TORRANCE,34.554466,-105.887952,15290,15161,3100,0.20447200052767,false,53,171,1118.37802485285,346.631785480706
FL,BRADFORD,29.952386,-82.16729,27888,23884,4550,0.190504103165299,false,44,72,258.175559380379,157.773952954676
GA,WHITE,34.618458,-83.75649,28454,27808,3261,0.117268411967779,false,9,322,1131.65108596331,31.6299992971111
AK,SKAGWAY,59.575097,-135.335418,,,,,true,3,3,,
WI,SHAWANO,44.785328,-88.60949,40927,40164,4404,0.109650433223783,false,37,322,786.766682141374,90.4048672025802
IA,CLAYTON,42.891697,-91.356926,17069,16833,2294,0.136279926335175,false,23,42,246.060108969477,134.747202530904
FL,MIAMI-DADE,25.610494,-80.499045,2685296,2644927,394945,0.149321701506318,false,9730,56075,2088.22416597649,362.343667141351
WV,HARDY,39.062195,-78.968025,14236,14114,2491,0.176491426951963,false,37,101,709.468951952796,259.904467547064
KY,FRANKLIN,38.19979,-84.85649,51563,49821,6683,0.134140221994741,false,92,754,1462.28885053236,178.422512266548
MO,NODAWAY,40.34886,-94.87048,20959,18278,3408,0.186453660137871,false,28,238,1135.55036022711,133.594160026719
KY,GRAYSON,37.458577,-86.344011,26586,26050,5027,0.192975047984645,false,12,154,579.252238020011,45.1365380275333
IL,HANCOCK,40.393085,-91.345215,17434,17156,2182,0.127185824201446,false,5,19,108.982448089939,28.6795916026156
RI,BRISTOL,41.729374,-71.28225,50568,47001,3189,0.0678496202208464,false,26,237,468.675842429995,51.4159152032906
NY,STEUBEN,42.957077,-77.34294,93034,91687,12537,0.136736941987414,false,179,899,966.313390803362,192.402777479201
MN,SIBLEY,44.575734,-94.230123,14933,14766,1460,0.0988757957469863,false,7,52,348.222058528092,46.8760463403201
WY,JOHNSON,44.044048,-106.588541,8602,8485,900,0.106069534472599,false,9,58,674.261799581493,104.626830969542
NE,BLAINE,41.92523,-99.990771,385,385,41,0.106493506493506,false,0,0,0,0
MD,WORCESTER,38.39765,-75.16003,53279,52574,4263,0.0810857077642941,false,126,1098,2060.84949041836,236.490925129976
AL,JEFFERSON,33.553444,-86.896536,669744,652226,106524,0.163323755876031,false,3404.5,14095.5,2104.61011968752,508.328555388327
NY,ULSTER,41.947216,-74.265458,182109,175073,25084,0.14327737572327,false,125,1278,701.777506877749,68.6402099841304
TX,LAMB,34.068861,-102.348018,12919,12686,2023,0.159467129118714,false,23,138,1068.19413267281,178.032355445468
MI,ST CLAIR,42.978767,-82.42038,,,,,true,467.5,1113.5,,
MI,HOUGHTON,47.121872,-88.56666,37428,33433,5326,0.159303681990847,false,54,205,547.718285775355,144.277011862777
IN,KOSCIUSKO,41.244293,-85.861575,80357,78770,7615,0.09667386060683,false,138,770,958.223925731424,171.73363863758
IN,LAWRENCE,38.860798,-86.48569,45077,44280,4984,0.112556458897922,false,29,90,199.658362357743,64.3343612041618
CO,CLEAR CREEK,39.689403,-105.670791,9358,9282,631,0.0679810385692739,false,12,91,972.430006411626,128.232528318017
SD,HAMLIN,44.680619,-97.178598,6288,6098,402,0.0659232535257461,false,9,35,556.615776081425,143.129770992366
CA,RIVERSIDE,33.978046,-117.37402,2449909,2413439,266955,0.110611869618416,false,8167,53797,2195.87747953087,333.359320693136
AR,DREW,33.587242,-91.722778,17143,16356,3720,0.227439471753485,false,71,256,1493.32088899259,414.163215306539
HI,KAUAI,22.012038,-159.705965,73610,72848,6414,0.088046343070503,false,209,1615,2193.99538106236,283.928814019834
KY,MCCRACKEN,37.053683,-88.712366,67584,66346,10173,0.153332529466735,false,127,1117,1652.75804924242,187.914299242424
NJ,MONMOUTH,40.264107,-74.266754,643615,637240,40958,0.064274056870253,false,772,7561,1174.77063151107,119.947484132595
KY,BREATHITT,37.552784,-83.385506,13438,13230,3726,0.281632653061225,false,7,50,372.079178449174,52.0910849828844
MS,PEARL RIVER,30.842878,-89.53524,56781,55491,9120,0.164350975833919,false,85.5,613,1079.58648139342,150.578538595657
SC,SPARTANBURG,34.933239,-81.991053,338096,330155,47882,0.145028850085566,false,2041.5,8040.5,2378.17069708012,603.822582935024
TX,FRANKLIN,33.175846,-95.219066,10522,10419,1153,0.110663211440637,false,21,64.5,613.001330545524,199.581828549705
VA,ESSEX,37.93948,-76.941871,10604,10512,1628,0.154870624048706,false,30,117,1103.35722368917,282.91210863825
MN,CLEARWATER,47.575873,-95.371117,8579,8393,940,0.11199809364947,false,11,24,279.752884951626,128.220072269495
TX,MARION,32.756817,-94.34427,9631,9522,1750,0.183784919134636,false,13,87,903.332987228741,134.980791195099
OK,LOVE,33.93725,-97.11925,10196,10088,1491,0.147799365582871,false,17,161,1579.0506080816,166.732051785014
LA,WASHINGTON,30.7865,-89.86042,,,,,true,264,785,,
WV,MCDOWELL,37.756214,-81.215546,18413,16335,5054,0.309397000306091,false,21,81,439.906587736925,114.049856079944
TN,STEWART,36.511756,-87.851548,13859,13735,1648,0.119985438660357,false,24,50,360.776390792987,173.172667580634
NE,KEARNEY,40.506269,-98.948461,6697,6606,442,0.0669088707235846,false,5,43,642.078542631029,74.6602956547708
MO,RANDOLPH,39.42082,-92.43792,24524,22570,3573,0.158307487815685,false,89,238,970.477899200783,362.90980264231
IL,MCDONOUGH,40.458607,-90.67328,27102,24540,4885,0.199062754686227,false,17,120,442.771751162276,62.7259980813224
WY,LINCOLN,41.813946,-110.53512,20158,20047,1418,0.0707337756272759,false,15,61,302.609385851771,74.4121440619109
PA,BUTLER,40.706524,-79.72344,195870,190654,15175,0.0795944485822485,false,228,1038,529.943329759534,116.403737172614
KY,NELSON,37.81244,-85.46941,47102,46478,4512,0.0970781875295839,false,25,464,985.096174260116,53.0763024924632
IL,BUREAU,41.326485,-89.19818,33027,32513,4094,0.125918863223941,false,21,340.5,1030.97465709874,63.5843400853847
KS,KINGMAN,37.64223,-98.11175,7284,7146,670,0.0937587461516933,false,8,62,851.18066996156,109.829763866008
MI,KENT,43.16087,-85.71644,658844,648364,68503,0.105655156671253,false,3060,13907,2110.81834243007,464.449854593804
NE,LINCOLN,41.050322,-100.744481,34122,33324,4278,0.128375945264674,false,48,591,1732.02039739757,140.671707402849
KS,BARTON,38.481239,-98.767837,25275,24698,3640,0.14738035468459,false,93,319,1262.11671612265,367.952522255193
MO,OZARK,36.64959,-92.458549,8773,8696,1886,0.21688132474701,false,26,26,296.363843611079,296.363843611079
WV,ROANE,38.34613,-81.63015,13921,13799,2790,0.202188564388724,false,33,151,1084.6921916529,237.051935924143
OH,MUSKINGUM,39.966046,-81.943506,86382,84075,13148,0.15638418079096,false,235,1567,1814.03533143479,272.047417286009
CA,SAN DIEGO,32.955612,-117.04518,3282782,3193390,330602,0.103526972903404,false,12711,50493,1538.1161466098,387.202074338168
OR,CLACKAMAS,45.26283,-122.69416,422308,419386,31386,0.0748379774241391,false,3124,25637,6070.6877444898,739.744451916611
HI,MAUI,20.887321,-156.48763,164632,162991,15969,0.097974734801308,false,478,4456,2706.64269400846,290.344525973079
GA,HEARD,33.290968,-85.139594,11616,11434,2136,0.186811264649292,false,9,110,946.969696969697,77.4793388429752
IA,DALLAS,41.685321,-94.040707,104136,103581,6038,0.0582925439993821,false,232.5,1573.5,1511.00483982484,223.265729430744
TX,YOAKUM,33.162398,-102.832242,7589,7543,908,0.120376508020681,false,21,58,764.264066411912,276.716299907761
MO,CHARITON,39.43295,-92.9416,7406,7161,850,0.11869850579528,false,32,54.5,735.889819065622,432.082095598164
PA,CHESTER,39.959526,-75.60604,540896,527321,31305,0.0593661166538029,false,527,3371,623.225167130095,97.4309294208129
OH,GREENE,39.807583,-83.88795,168531,161157,15757,0.0977742201703929,false,269,3143,1864.93879464312,159.614551625517
NY,BRONX,40.848711,-73.852939,1419250,1388414,374138,0.269471497694492,false,0,4,0.281838999471552,0
LA,IBERIA,29.904728,-91.66978,,,,,true,4,3,,
CO,LOGAN,40.728091,-103.090464,21067,19152,2506,0.130847953216374,false,66,517,2454.07509374852,313.286182180662
NH,GRAFTON,43.926502,-71.842295,91759,85332,8640,0.10125158205597,false,101,955,1040.76984274022,110.070946719123
NM,EDDY,32.457858,-104.306471,61114,60415,7519,0.12445584705785,false,260,1476,2415.15855614098,425.434434008574
NY,FULTON,43.115609,-74.423678,52787,51814,7532,0.145366117265604,false,91,513,971.83018546233,172.390929584936
FL,CLAY,29.987115,-81.858147,223436,221079,20204,0.0913881463187367,false,556,2110,944.342003974292,248.840831379008
TX,TERRELL,30.232332,-102.072539,851,851,70,0.082256169212691,false,0,0,0,0
NE,MORRILL,41.732205,-102.990599,4544,4423,550,0.124349988695456,false,5,20,440.140845070423,110.035211267606
IN,FAYETTE,39.641346,-85.13931,23390,22914,3830,0.167146722527712,false,0,0,0,0
IA,AUDUBON,41.7217,-94.93159,5622,5485,649,0.118322698268004,false,9,20,355.745286374956,160.08537886873
SD,MCCOOK,43.678924,-97.362036,5732,5579,413,0.0740276035131744,false,4,18,314.026517794836,69.7836706210747
AR,CONWAY,35.265702,-92.689248,20872,20694,4261,0.205905093263748,false,71,441,2112.87849750862,340.168646991184
KS,OSBORNE,39.348649,-98.767876,3473,3364,419,0.124554102259215,false,10,7,201.554851713216,287.935502447452
MO,DAVIESS,39.935947,-94.06763,8449,8276,1095,0.13231029482842,false,9,73,864.00757486093,106.521481832169
PA,WESTMORELAND,40.16109,-79.882095,353345,346431,34698,0.100158473115859,false,511.5,2530,716.014093874259,144.759371152839
TX,THROCKMORTON,33.170712,-99.206137,1589,1589,222,0.139710509754563,false,1,5,314.663310258024,62.9326620516048
ND,MCKENZIE,47.742475,-103.403215,14280,14065,1801,0.12804834696054,false,42,243,1701.68067226891,294.117647058824
IA,LEE,40.59004,-91.427574,33175,31831,4151,0.130407464421476,false,93,499,1504.14468726451,280.331574981161
MN,HENNEPIN,44.947575,-93.34395,1268903,1245699,124654,0.100067512296309,false,6849,40018,3153.74776480156,539.757570121593
MN,MOWER,43.667496,-92.9736,40069,39366,4782,0.12147538484987,false,77,522,1302.75275150366,192.168509321421
IA,MADISON,41.343437,-94.01347,16760,16564,1127,0.0680391209852693,false,76.5,839,5005.96658711217,456.443914081146
IA,GUTHRIE,41.67774,-94.50237,10646,10517,982,0.0933726347817819,false,10,34,319.368777005448,93.9319932368965
IA,CLINTON,41.851048,-90.18745,46383,45382,5962,0.13137367238112,false,212,845,1821.78815514305,457.064010521096
AK,WRANGELL,56.279121,-132.040325,,,,,true,6,1,,
NC,YADKIN,36.158765,-80.665164,37419,37017,5050,0.136423805278656,false,60,418,1117.07955851306,160.346348111922
PA,WAYNE,41.647007,-75.293195,51189,47922,5845,0.121969033011978,false,49,263,513.782257906972,95.7236906366602
OH,GALLIA,38.80956,-82.20281,29162,28495,4219,0.148061063344446,false,46,232,795.55586036623,157.739524038132
FL,LAFAYETTE,29.990066,-83.17851,8035,6601,1174,0.177851840630208,false,0,0,0,0
UT,MORGAN,41.091027,-111.577885,12585,12572,214,0.017021953547566,false,4,20,158.919348430671,31.7838696861343
GA,BARROW,33.992009,-83.712303,86982,86319,8797,0.101912672760342,false,159,1163.5,1337.63307350946,182.796440642892
KS,HAMILTON,37.995244,-101.793689,2485,2475,92,0.0371717171717172,false,11,40,1609.65794768612,442.655935613682
NY,NEW YORK,40.776557,-73.970174,1627788,1578789,250056,0.158384685984004,false,6,37,2.2730232683863,0.368598367846427
NY,SUFFOLK,40.900837,-73.3474,1525680,1498692,95543,0.0637509241391827,false,804,9652,632.635939384406,52.6978134340098
IL,UNION,37.475207,-89.252808,16972,16558,3204,0.193501630631719,false,7,88,518.501060570351,41.2444025453688
OH,CLINTON,39.488464,-83.636604,42014,40731,6018,0.147749871105546,false,45.5,421.5,1003.23701623268,108.297234255248
IN,STEUBEN,41.643437,-85.002467,34648,33046,2912,0.0881195908733281,false,15,379,1093.85823135535,43.2925421380743
SD,SANBORN,44.021032,-98.092105,2370,2303,263,0.114198871037777,false,0,2,84.3881856540084,0
AR,FRANKLIN,35.508573,-93.887672,17220,16949,3197,0.188624697622279,false,73,205,1190.47619047619,423.925667828107
KS,RENO,38.053444,-97.93571,61693,58310,7252,0.12436974789916,false,210,1075,1742.49914901204,340.395182597702
IL,PEORIA,40.650146,-89.652,179831,174975,26991,0.154256322331762,false,1567,5234,2910.51042367556,871.373678620483
TX,HOOD,32.430149,-97.831677,64198,63358,5191,0.0819312478297926,false,109,741,1154.24156515779,169.787220785694
WV,TYLER,38.34613,-81.63015,8181,8062,1426,0.176879186306128,false,35,25,305.586114166972,427.820559833761
OR,BAKER,44.791683,-117.84842,16796,16336,2252,0.137855044074437,false,15,205,1220.52869730888,89.3069778518695
MN,DOUGLAS,45.884743,-95.37578,39354,38794,3213,0.0828220858895706,false,47,280.5,712.761091629822,119.428774711592
FL,ALACHUA,29.643612,-82.2908,281751,264520,52015,0.196639195523968,false,1366,5786,2053.58632267499,484.825253503981
MS,PERRY,31.169307,-88.988755,11459,11120,2016,0.181294964028777,false,0,0,0,0
TX,ATASCOSA,28.891397,-98.535381,50058,49117,7924,0.161329071400941,false,124.5,861.5,1721.00363578249,248.711494666187
MN,STEVENS,45.593461,-95.992315,9686,9277,959,0.103373935539506,false,9,60,619.450753665084,92.9176130497626
MS,PANOLA,34.317448,-89.951744,32965,32622,7874,0.241370854024891,false,23,235,712.877294099803,69.7709692097679
TX,HIDALGO,26.396384,-98.18099,880921,872043,237121,0.27191434367342,false,2604,16105,1828.200258593,295.599718930528
NV,LYON,38.995132,-119.16177,60630,60404,6650,0.110092046884312,false,191,411,677.882236516576,315.025564901864
KY,CRITTENDEN,37.334797,-88.08108,8972,8718,1578,0.18100481761872,false,5,44,490.414623272403,55.7289344627731
NC,PITT,35.591095,-77.372376,172279,166082,32225,0.194030659553714,false,784.5,3967,2302.66021975981,455.366005142821
FL,COLUMBIA,30.423128,-84.28066,70755,66013,11237,0.170224046778665,false,188,592,836.689986573387,265.705603844251
MO,MARIES,38.162615,-91.923601,8435,8369,1246,0.148882781694348,false,9,17,201.54119739182,106.69828097214
OR,LINN,44.494824,-122.543755,129794,128257,16414,0.127977420335732,false,201.5,1968.5,1516.63405088063,155.246005208253
NY,HAMILTON,43.657879,-74.502456,5102,5052,506,0.100158353127474,false,6,25,490.00392003136,117.600940807526
CA,INYO,37.361378,-118.39636,18803,18392,1928,0.104828186167899,false,166,264,1404.03127160559,882.83784502473
MI,HILLSDALE,41.864475,-84.642409,45658,44076,6830,0.154959615210092,false,146,481,1053.48460291734,319.768715230628
CO,CHEYENNE,38.835386,-102.604585,1732,1691,193,0.114133648728563,false,1,21,1212.47113163972,57.7367205542725
WI,VERNON,43.65536,-90.85611,30915,30544,4431,0.145069408067051,false,20,133,430.211871259906,64.6935144751739
SD,HANSON,43.680612,-97.796845,3473,3473,215,0.0619061330262021,false,0,0,0,0
MT,WHEATLAND,46.497047,-109.857147,2049,2019,478,0.236750866765726,false,7,2,97.6085895558809,341.630063445583
AR,STONE,35.856989,-92.140494,12474,12359,2665,0.215632332713003,false,42,145,1162.4178290845,336.700336700337
ND,SHERIDAN,47.581359,-100.330986,1327,1322,113,0.0854765506807867,false,0,9,678.221552373776,0
IN,MARSHALL,41.34162,-86.310776,46225,45480,4979,0.109476693051891,false,0,0,0,0
NY,ESSEX,44.043102,-73.45808,37077,35097,4143,0.118044277288657,false,56,311.5,840.143485179491,151.037031043504
ID,GOODING,42.973185,-114.82142,15740,15590,2391,0.153367543296985,false,36,92,584.498094027954,228.7166454892
NE,PERKINS,40.856065,-101.636443,2835,2795,214,0.0765652951699463,false,1,21,740.740740740741,35.2733686067019
IN,JACKSON,38.879627,-86.04306,46319,45150,5067,0.112225913621262,false,37,397,857.099678317753,79.8808264427125
WA,STEVENS,48.390648,-117.854897,47470,47013,6072,0.129155765426584,false,49,339,714.135243311565,103.223088266273
VA,JAMES CITY,37.324427,-76.778319,80046,79184,5119,0.0646468983633057,false,101,663,828.273742598006,126.177447967419
AL,MOBILE,30.69399,-88.056145,413162,405368,65948,0.162686743896904,false,2694,8424,2038.90967707582,652.044476500743
VA,COVINGTON CITY,37.79127,-79.99537,5671,5585,1317,0.235810205908684,false,9,81,1428.31952036678,158.702168929642
TX,UVALDE,29.211359,-99.78582,24810,23990,5242,0.218507711546478,false,68,423,1704.9576783555,274.083031035873
IL,SANGAMON,39.724815,-89.91036,195217,191460,24702,0.129019116264494,false,1087,6412.5,3284.80613880963,556.816260878919
OH,HENRY,41.39122,-84.12438,27581,27190,2292,0.0842956969474071,false,28,249,902.795402632247,101.519161741779
AR,GREENE,36.186962,-90.38301,46182,44944,7657,0.170367568529726,false,463,1289,2791.13074357975,1002.55510805076
NV,CLARK,35.978218,-114.83407,2293764,2270530,299896,0.132081936816514,false,10376,67292,2933.69326574138,452.356912045006
OH,FAYETTE,39.536926,-83.44049,28880,28308,4541,0.160414017238943,false,49,384,1329.63988919668,169.667590027701
IA,MITCHELL,43.348564,-92.784466,10548,10344,713,0.0689288476411446,false,4,29,274.933636708381,37.9218809252939
MO,NEW MADRID,36.425343,-89.69932,16041,15601,2894,0.185500929427601,false,182.5,571.5,3562.74546474659,1137.70961910105
IA,LINN,42.070568,-91.66712,229463,224252,22106,0.0985766013235111,false,581,4567,1990.29908961358,253.199862287166
AR,INDEPENDENCE,35.771168,-91.65075,38120,37113,7287,0.196346293751516,false,207,518,1358.8667366212,543.02203567681
SD,PENNINGTON,44.078087,-103.22213,112081,108556,13073,0.120426323740742,false,744.5,3603.5,3215.08551850894,664.25174650476
CO,PROWERS,38.08611,-102.618866,11931,11613,1994,0.17170412468785,false,10,89,745.955913167379,83.8152711424021
ND,BOTTINEAU,48.794412,-100.831257,6390,6092,460,0.0755088640840447,false,2,35,547.73082942097,31.2989045383412
MS,UNION,34.492767,-89.010605,28009,27684,3947,0.142573327553822,false,47,303,1081.7951372773,167.803206112321
MN,DODGE,44.020706,-92.869353,20962,20684,1127,0.0544865596596403,false,23,112,534.300162198264,109.722354737143
FL,SARASOTA,27.386393,-82.55911,449011,440606,36101,0.0819348805962697,false,470,3977.5,885.835759034857,104.674495725049
VA,WARREN,38.908187,-78.207131,41104,40134,4542,0.113170877560173,false,58,421,1024.23121837291,141.105488516933
TN,HANCOCK,36.521419,-83.227453,6790,6600,2078,0.314848484848485,false,20,101,1487.48159057437,294.550810014728
AL,LOWNDES,32.147888,-86.650586,10008,9844,2913,0.295916294189354,false,20,50,499.600319744205,199.840127897682
KY,FLOYD,37.558283,-82.740337,35342,34500,9177,0.266,false,17,68,192.405636353347,48.1014090883368
WV,TUCKER,39.09689,-79.68106,6698,6520,859,0.131748466257669,false,5,14,209.017617199164,74.6491489997014
AL,MADISON,34.764238,-86.55108,397135,385414,40401,0.104824941491487,false,878,4771,1201.35470306067,221.083510644995
NC,CHOWAN,36.127288,-76.60207,13814,13584,2790,0.205388692579505,false,40,138,998.986535398871,289.561314608368
WA,SPOKANE,47.620375,-117.403371,544323,530313,64956,0.122486154403154,false,2330,20153,3702.39728984445,428.054666071432
GA,HOUSTON,32.458381,-83.662856,166902,164889,16644,0.100940632789331,false,324.5,1848.5,1107.53615894357,194.425471234617
SD,DEUEL,44.75629,-96.690239,4318,4271,288,0.0674315148677125,false,6,12,277.906438165818,138.953219082909
WI,JEFFERSON,43.013807,-88.773985,85867,82874,6734,0.0812558824239207,false,123,589,685.944542140753,143.244785540429
MI,SCHOOLCRAFT,46.020758,-86.199352,8093,7973,1179,0.147874075003136,false,33,70,864.945014209811,407.759792413197
IA,APPANOOSE,40.744683,-92.870345,12242,12083,2468,0.204253910452702,false,34,182,1486.68518215978,277.732396667211
KS,SCOTT,38.48251,-100.90089,5071,4933,436,0.0883843502939388,false,14,17,335.239597712483,276.079668704398
IN,BARTHOLOMEW,39.199764,-85.92089,82881,81753,9813,0.12003229239294,false,15.5,120.5,145.389172427939,18.7015118060834
KY,HENRY,38.451561,-85.120079,15774,15667,2602,0.166081572732495,false,5,60,380.372765310004,31.6977304425003
IL,POPE,37.417169,-88.542374,3757,3599,516,0.143373159210892,false,0,0,0,0
CO,PUEBLO,38.170658,-104.489892,168726,164201,25321,0.154207343438834,false,1678,7341,4350.84100849899,994.511812050306
IL,MACON,39.83924,-88.95295,102591,99401,14562,0.146497520145673,false,499,2134,2080.10449259682,486.397442270765
ND,WILLIAMS,46.464195,-98.526057,39368,38886,3406,0.0875893637813095,false,140,808,2052.42836821784,355.618776671408
TX,DONLEY,34.955036,-100.815846,3276,2901,241,0.0830748017924853,false,8,17,518.925518925519,244.200244200244
OH,HARDIN,40.636177,-83.60359,30527,28330,5153,0.181891987292623,false,32,210,687.915615684476,104.82523667573
WA,PACIFIC,46.556587,-123.782419,23750,23434,2709,0.11560126312196,false,13,80,336.842105263158,54.7368421052632
TX,TYLER,30.781633,-94.415375,20084,17861,3495,0.19567773360954,false,20,144,716.988647679745,99.5817566221868
GA,GREENE,33.573967,-83.17531,19586,19419,1705,0.0878006076522993,false,16,125,638.210967017257,81.6910037782089
ID,CLARK,44.286251,-112.36112,776,771,98,0.127107652399481,false,0,3,386.59793814433,0
OH,HAMILTON,39.137836,-84.71159,827878,809231,120229,0.148571915806488,false,3266.5,22281,2691.33857887273,394.562967007216
IN,HOWARD,40.486435,-86.12997,83610,82161,10292,0.125266245542289,false,361,1060,1267.79093409879,431.766535103457
WI,CHIPPEWA,44.9403,-91.395706,66558,63871,5892,0.0922484382583645,false,149,1003.5,1507.70756332823,223.864899786652
TX,EASTLAND,32.324645,-98.83656,17846,16963,2485,0.14649531332901,false,41,186,1042.25036422728,229.74335985655
DE,NEW CASTLE,39.707096,-75.56667,573030,556738,56807,0.10203542779548,false,2389.5,12623,2202.85150864702,416.993874666248
NC,POLK,35.277901,-82.167621,19689,19354,2643,0.136560917639764,false,31,202.5,1028.49306719488,157.448321397735
TN,ANDERSON,36.099937,-84.13391,78175,76591,11370,0.148450862372864,false,241,832.5,1064.9184521906,308.282699072594
OH,FRANKLIN,40.003437,-83.03224,1321635,1292184,187832,0.14536010351467,false,3283.5,23228,1757.52004146379,248.442270369656
AR,BRADLEY,33.615875,-92.06316,10354,10255,2057,0.200585080448562,false,24,115,1110.68186208229,231.794475564999
KS,WICHITA,38.481922,-101.347434,2115,2096,342,0.163167938931298,false,1,6,283.687943262411,47.2813238770686
MO,JACKSON,39.017525,-94.27792,717021,706224,97685,0.138320136387322,false,4814.5,20315.5,2833.32008407006,671.458715992977
KS,HARPER,37.153286,-98.029884,5446,5315,812,0.15277516462841,false,12,47,863.018729342637,220.345207491737
WA,ASOTIN,46.181861,-117.227781,22424,22209,3317,0.149353865550002,false,51,452,2015.69746699964,227.434891188013
WY,NIOBRARA,43.062159,-104.468373,2415,2190,386,0.176255707762557,false,9,21,869.565217391304,372.670807453416
GA,TOWNS,34.902662,-83.732215,12739,11892,1529,0.12857383114699,false,19,17,133.448465342649,149.148284794725
MI,NEWAYGO,43.562709,-85.791423,50414,49829,7115,0.142788336109494,false,62,330,654.580076962748,122.981711429365
IA,BOONE,42.038601,-93.939138,26669,26170,1757,0.0671379442109285,false,42,135.5,508.080542952492,157.486219955754
MD,CAROLINE,38.88757,-75.833626,33406,32889,4064,0.123567150110979,false,98,387,1158.47452553434,293.360474166317
NE,SHERMAN,41.218743,-98.972849,2974,2918,277,0.0949280328992461,false,1,8,268.997982515131,33.6247478143914
KY,MARSHALL,36.85801,-88.35075,31728,30945,4148,0.134044272095654,false,21,265,835.224407463439,66.1875945537065
SC,JASPER,33.99802,-81.033936,30658,29166,5338,0.183021326201742,false,219.5,703,2293.03933720399,715.963206993281
WI,DOOR,45.067811,-87.087936,30279,29961,2595,0.0866125963752879,false,17,116,383.103801314442,56.1445226064269
TX,BLANCO,30.265605,-98.399977,12008,11872,1031,0.0868429919137466,false,13,58,483.011325782811,108.261159227182
IL,WARREN,40.850441,-90.620223,16576,15546,1996,0.128393155795703,false,31,174,1049.71042471042,187.017374517375
CA,MARIPOSA,37.570033,-119.91286,17060,16893,2347,0.13893328597644,false,100,272,1594.37280187573,586.166471277843
NY,LEWIS,43.782681,-75.44414,26618,26373,3230,0.122473742084708,false,24,145,544.744158088512,90.1645503043054
FL,UNION,30.05428,-82.366918,15551,10695,1995,0.186535764375877,false,0,0,0,0
VA,BEDFORD,37.33405,-79.522026,80254,79530,6429,0.0808374198415692,false,108,565,704.014753158721,134.572731577242
GA,BALDWIN,33.082405,-83.228714,43669,38733,8518,0.219915834043322,false,210,1074,2459.41056584763,480.890334104285
OK,DEWEY,35.978433,-99.014094,4433,4347,627,0.14423740510697,false,4,55,1240.69478908189,90.2323482968644
NY,BROOME,42.161977,-75.830283,197738,187291,35448,0.189266969582094,false,545,4339,2194.31773356664,275.617230881267
RI,NEWPORT,41.64079,-71.185715,85095,81547,7027,0.0861711650949759,false,100,685,804.982666431635,117.515717727246
PA,PIKE,41.325949,-75.031514,59691,59153,5482,0.0926749277297855,false,62,352,589.703640414803,103.868254845789
NE,SEWARD,40.871944,-97.140383,17636,16338,1125,0.0688578773411678,false,11,89,504.64958040372,62.3724200498979
NH,CHESHIRE,42.925455,-72.248217,76945,73001,6529,0.0894371309982055,false,109,862,1120.2807199948,141.659627006303
AR,MADISON,36.012545,-93.724053,17032,16850,2529,0.150089020771513,false,34,101,593.001409112259,199.62423673086
NM,TAOS,36.409138,-105.57204,34516,34286,4943,0.144169631919734,false,66,360,1042.99455325067,191.215668095956
GA,GLASCOCK,33.227491,-82.606913,2913,2837,347,0.122312301727177,false,2,19,652.248541023,68.6577411603158
MA,PLYMOUTH,41.987196,-70.741942,531889,521755,36987,0.070889593774856,false,1563,4757,894.359537422282,293.858305022289
MN,LINCOLN,44.408238,-96.272032,5594,5412,496,0.0916481892091648,false,2,5,89.3814801573114,35.7525920629246
SD,HUTCHINSON,43.33671,-97.749383,7393,7092,708,0.0998307952622674,false,2,7,94.684160692547,27.0526173407277
ID,POWER,42.782623,-112.848564,8018,7946,646,0.0812987666750566,false,13,44,548.765278124221,162.135195809429
AR,LEE,34.774353,-90.756905,8511,6953,1926,0.277002732633396,false,28,95,1116.20256139114,328.986018094231
AZ,SANTA CRUZ,31.346354,-110.930916,48209,48023,9707,0.202132311600691,false,62,875,1815.01379410484,128.606691696571
ID,LATAH,46.73173,-117.00105,40315,35646,5439,0.152583740111092,false,15,460,1141.01451072802,37.206994915044
KY,GRANT,38.64921,-84.625946,25238,24806,3045,0.122752559864549,false,6,150,594.341865441002,23.7736746176401
KY,SPENCER,38.024908,-85.316758,19875,19643,1450,0.0738176449625821,false,7,49,246.540880503145,35.2201257861635
SD,BRULE,43.72988,-99.092941,5261,5091,537,0.105480259281084,false,10,64,1216.49876449344,190.0779319521
FL,HIGHLANDS,27.322466,-81.41154,103808,102146,15723,0.15392673232432,false,0,0,0,0
KS,ROOKS,39.346006,-99.324492,4869,4645,247,0.0531754574811625,false,8,51,1047.44300677757,164.304785376874
TN,HAWKINS,36.452211,-82.931386,57446,56761,9725,0.171332428956502,false,260,1506,2621.59245204192,452.598962503917
TX,HOWARD,32.25286,-101.47287,33127,29500,4445,0.150677966101695,false,232,844,2547.77070063694,700.335074108733
AR,ST FRANCIS,35.014438,-90.742138,,,,,true,281,513,,
NY,SULLIVAN,41.720176,-74.76468,79147,76020,11547,0.151894238358327,false,161,706,892.011068012685,203.418954603459
GA,EVANS,32.151902,-81.887618,10740,10162,1870,0.18401889391852,false,28,106,986.964618249534,260.707635009311
KS,MIAMI,38.57153,-94.878044,34625,34006,2267,0.0666647062283127,false,92.5,401,1158.12274368231,267.148014440433
WV,CLAY,38.459826,-81.081866,7946,7839,1952,0.249011353488965,false,16,55,692.172162094135,201.359174427385
ID,LEMHI,44.928789,-113.887841,8166,8039,947,0.117800721482771,false,16,23,281.655645358805,195.934361988734
TX,DALLAS,32.81252,-96.838135,2603816,2573491,359950,0.139868373349664,false,7730.5,54159.5,2080.00488513781,296.891178178489
KY,METCALFE,36.992647,-85.63369,10372,10265,2634,0.256600097418412,false,2,35,337.446972618589,19.2826841496336
IL,MERCER,41.200016,-90.75876,15619,15437,1217,0.078836561508065,false,4,57,364.940137012613,25.6098341763237
WI,LA CROSSE,43.81452,-91.25082,120262,115764,14383,0.124244151895235,false,193,2235,1858.44240075834,160.482945568841
MD,DORCHESTER,38.429196,-76.047433,32612,32145,5225,0.16254471924094,false,147,687,2106.5865325647,450.754323561879
CO,BACA,37.406647,-102.61652,3460,3364,810,0.240784780023781,false,12,19,549.132947976879,346.820809248555
IA,DUBUQUE,42.500935,-90.66581,98948,95406,8982,0.0941450223256399,false,294.5,1140,1152.12030561507,297.63107895056
VA,LOUISA,37.971681,-77.959178,39012,38840,3916,0.100823892893924,false,40,321,822.823746539526,102.532554085922
TX,RANDALL,34.98086,-101.92753,143791,140786,13392,0.0951230946258861,false,807,3366.5,2341.24527960721,561.231231440076
IA,WINNESHIEK,43.292989,-91.850788,19972,18073,1426,0.0789022298456261,false,35,31,155.217304225916,175.245343480873
NM,CATRON,33.901813,-108.392097,3685,3649,772,0.211564812277336,false,1,22,597.014925373134,27.1370420624152
GA,ECHOLS,30.7085,-82.836132,3705,3705,458,0.12361673414305,false,2,4,107.962213225371,53.9811066126856
LA,ALLEN,30.652744,-92.819605,,,,,true,16,57,,
MS,JASPER,32.016989,-89.11943,16211,16055,3036,0.189099968857054,false,31,106,653.876997100734,191.228178397384
ND,WALSH,48.418118,-97.40549,10488,10292,1081,0.105033035367276,false,13,101,963.005339435545,123.951182303585
MO,VERNON,37.850196,-94.341597,19713,19008,3609,0.189867424242424,false,69,598,3033.53117232283,350.022827575711
VA,CARROLL,36.731951,-80.727838,29158,28913,4688,0.162141597205409,false,30,218,747.650730502778,102.887715206804
IN,SPENCER,37.883904,-87.04615,19871,19502,1294,0.0663521690083068,false,1,1,5.03245936289065,5.03245936289065
TX,POTTER,35.21533,-101.70396,116634,110270,23024,0.208796590187721,false,781,3278.5,2810.92991751976,669.616063926471
CT,GREATER BRIDGEPORT PLANNING REGION,41.23494,-73.21886,326296,318192,42096,0.13229748076633,false,696,5199,1593.33856375806,213.303258391154
MI,MARQUETTE,46.49176,-87.35481,66430,62751,8538,0.136061576707941,false,175,460,692.458226704802,263.435194942044
AK,JUNEAU,58.356556,-134.50731,,,,,true,161,893,,
TX,ARCHER,33.616305,-98.687267,8734,8663,1015,0.117164954403786,false,3,12,137.394092054042,34.3485230135104
UT,SALT LAKE,40.759274,-111.84247,1184689,1168735,97689,0.0835852438747877,false,4137,32854.5,2773.25947991414,349.205572095293
TX,WISE,33.23077,-97.6118,72359,70809,6474,0.0914290556285218,false,154,845,1167.78838845202,212.827706297765
TX,BASTROP,30.102219,-97.30746,102370,99311,12335,0.124205777809105,false,366.5,1224.5,1196.15121617661,358.015043469767
IN,JAY,40.433407,-85.15029,20281,20001,2639,0.131943402829859,false,6,19,93.6837434051575,29.5843400226813
ND,RENVILLE,48.712781,-101.658152,2277,2212,158,0.0714285714285714,false,2,5,219.587176108915,87.8348704435661
TN,MCNAIRY,35.158752,-88.594795,25933,25502,4114,0.161320680730923,false,86.5,381.5,1471.09860023908,333.551845139398
TN,SMITH,36.173046,-85.93376,20196,20017,2656,0.132687215866513,false,18,182,901.168548227372,89.126559714795
FL,BREVARD,28.33072,-80.723785,620533,612448,60603,0.0989520742985527,false,757,2760,444.778923925077,121.991900511335
NE,BANNER,41.53975,-103.726263,657,657,62,0.0943683409436834,false,1,3,456.62100456621,152.20700152207
AL,RUSSELL,32.289811,-85.18698,58858,58278,12966,0.222485328940595,false,211,900.5,1529.95344727989,358.489924904006
SD,JONES,43.95199,-100.686139,1030,1023,162,0.158357771260997,false,1,1,97.0873786407767,97.0873786407767
IN,WHITE,40.75095,-86.864293,24709,24318,2422,0.0995970063327576,false,0,0,0,0
NY,ST LAWRENCE,44.93134,-74.89285,,,,,true,145,1340,,
OH,DELAWARE,40.278941,-83.007462,221160,218562,11029,0.0504616539014101,false,2635.5,17241,7795.71351058058,1191.67118827998
KY,FLEMING,38.423786,-83.73422,15221,15176,3480,0.229309435951502,false,11,47,308.783916956836,72.2685763090467
OH,LAWRENCE,38.504486,-82.64869,57385,56514,9902,0.175213221502637,false,43,266,463.535767186547,74.9324736429381
TX,GILLESPIE,30.250408,-98.847885,27202,26866,2549,0.0948782848209633,false,19,135,496.287037717815,69.8478053084332
OH,HIGHLAND,39.184488,-83.603668,43403,42780,6169,0.144202898550725,false,56.5,327.5,754.55613667258,130.175333502292
MT,DANIELS,48.794429,-105.541739,1524,1489,177,0.118871725990598,false,1,2,131.233595800525,65.6167979002625
NE,ANTELOPE,42.183225,-98.058037,6302,6208,623,0.100354381443299,false,0,0,0,0
CO,HUERFANO,37.62409,-104.7829,6946,6813,1193,0.175106414208132,false,0,0,0,0
KY,CHRISTIAN,36.870354,-87.486595,72599,67254,11580,0.17218306717816,false,177,1458,2008.29212523589,243.805011088307
MO,WORTH,40.480428,-94.419067,1956,1923,338,0.175767030681227,false,0,3,153.374233128834,0
NE,DAWES,42.711214,-103.134872,8212,7395,932,0.126031102096011,false,16,149,1814.41792498782,194.836824159766
MN,NICOLLET,44.168804,-94.02725,34350,31884,3061,0.0960042654623008,false,118,919,2675.40029112082,343.522561863173
KY,EDMONSON,37.227856,-86.217778,12243,12065,2030,0.168255283878989,false,5,42,343.053173241853,40.8396634811729
MA,NANTUCKET,41.305878,-70.14191,14299,14146,428,0.0302559027286866,false,32,174,1216.8683124694,223.791873557591
WI,MARQUETTE,43.826053,-89.409095,15706,15583,1843,0.118269909516781,false,9,63,401.120590856997,57.3029415509996
IA,HARRISON,41.556393,-95.89292,14645,14380,1079,0.0750347705146036,false,2,14,95.5957664731991,13.6565380675999
IL,GRUNDY,41.29241,-88.401054,52920,52454,3307,0.0630457162466161,false,63.5,410,774.754346182918,119.992441421013
TN,WAYNE,35.242687,-87.819703,16251,14395,2669,0.185411601250434,false,14,78,479.970463356101,86.1485447049412
MS,OKTIBBEHA,33.46273,-88.81639,51473,45871,13109,0.285779686512175,false,82,895,1738.77566879723,159.306821051814
TX,MATAGORDA,28.783341,-95.997755,36274,35898,7816,0.217728007131317,false,187,787,2169.59805921597,515.520758670122
OR,GRANT,44.393116,-118.949844,7238,7040,1071,0.152130681818182,false,0,2,27.6319425255596,0
MI,MISSAUKEE,44.325424,-85.085471,15156,15051,1618,0.107501162713441,false,43,106,699.392979678015,283.716020058063
KS,LANE,38.481286,-100.466185,1497,1490,121,0.0812080536912752,false,8,7,467.601870407482,534.40213760855
TN,LEWIS,35.55375,-87.54093,12784,12508,1986,0.158778381835625,false,32,140,1095.11889862328,250.312891113892
MT,PRAIRIE,46.852434,-105.375808,1251,1216,291,0.239309210526316,false,2,2,159.872102318146,159.872102318146
WV,MONROE,37.756214,-81.215546,12401,12312,1929,0.156676413255361,false,10,56,451.576485767277,80.638658172728
MN,ISANTI,45.57062,-93.226715,41934,41465,3238,0.0780899553840588,false,46,403,961.034005818667,109.696189249773
IA,WARREN,41.336769,-93.564366,53484,51715,2767,0.0535047858454994,false,885,4822.5,9016.71527933588,1654.70047116895
MO,MONITEAU,38.628616,-92.566475,15303,14011,1464,0.10448932981229,false,9,9,58.8119976475201,58.8119976475201
WA,THURSTON,46.932598,-122.829441,296640,292670,28292,0.0966686028632931,false,771,6005,2024.33926645092,259.911003236246
VA,SCOTT,36.63981,-82.578316,21504,20711,3729,0.180049249191251,false,42,286,1329.98511904762,195.3125
TX,WASHINGTON,30.159338,-96.40511,36156,33890,4287,0.126497491885512,false,90,413,1142.27237526275,248.921340856289
VA,CAROLINE,38.030319,-77.352348,31541,30252,3496,0.115562607430914,false,96,245,776.766748042231,304.36574617165
FL,BROWARD,26.193535,-80.476683,1946127,1927838,235824,0.122325631095559,false,2243,16678,856.984153654926,115.254554301955
IN,WABASH,40.843717,-85.795175,30901,29185,3136,0.107452458454686,false,0,0,0,0
NC,NEW HANOVER,34.177466,-77.871378,231214,225457,27891,0.123708733816204,false,775,5769,2495.09112769988,335.187315646976
MN,KANDIYOHI,45.152714,-95.004981,43757,42603,4260,0.0999929582423773,false,116,496,1133.53292044701,265.100441072286
CA,FRESNO,36.761006,-119.655019,1012152,994567,185717,0.18673151230636,false,6622,25062,2476.11030754274,654.249559354721
MI,OTSEGO,45.027393,-84.671074,25352,25019,2411,0.0963667612614413,false,63,180,710.00315556958,248.501104449353
TX,HALL,34.453189,-100.576343,2827,2778,455,0.163786897048236,false,2,10,353.731871241599,70.7463742483198
MN,NORMAN,47.297764,-96.51433,6411,6248,641,0.102592829705506,false,7,8,124.785524879114,109.187334269225
WI,WAUPACA,44.623135,-88.763565,51714,50397,5067,0.100541698910649,false,41.5,205.5,397.377886065669,80.2490621495146
MO,ADAIR,40.193413,-92.58316,25224,23287,4942,0.212221411087731,false,77,549,2176.49857278782,305.264827148747
NC,MADISON,35.86408,-82.712731,21640,20780,2378,0.114436958614052,false,19,88,406.654343807763,87.8003696857671
IA,DELAWARE,42.473002,-91.359438,17549,17373,1368,0.078742876877914,false,40.5,156,888.939540714571,230.782380762437
CA,LAKE,39.047752,-122.91607,68139,66900,11156,0.166756352765321,false,468,1044,1532.16219786026,686.831330075287
VA,FREDERICKSBURG CITY,38.299272,-77.486658,28383,26126,4281,0.163859756564342,false,142,1008,3551.42162562097,500.299475037875
KY,BOONE,38.974595,-84.731431,137676,136365,8997,0.0659773402265977,false,131,2153,1563.8164967024,95.1509340771086
VA,LEE,36.701721,-83.130112,22042,20361,5617,0.275870536810569,false,34,277,1256.69177025678,154.25097541058
MT,GOLDEN VALLEY,46.380624,-109.174586,840,840,151,0.179761904761905,false,2,0,0,238.095238095238
KY,SIMPSON,36.740947,-86.581747,19786,19275,2914,0.151180285343709,false,24,259,1309.00636813909,121.297887395128
PA,SULLIVAN,41.43979,-76.511525,5849,5631,620,0.11010477712662,false,3,48,820.653103094546,51.2908189434091
MT,JUDITH BASIN,47.032558,-110.30532,2053,2049,324,0.158125915080527,false,2,1,48.7092060399416,97.4184120798831
TN,COFFEE,35.483685,-86.089195,58940,58169,9391,0.161443380494765,false,233.5,914.5,1551.5778758059,396.165592127587
SC,GEORGETOWN,33.417531,-79.296333,64200,63531,9157,0.144134359603973,false,306.5,1030.5,1605.14018691589,477.414330218069
AL,AUTAUGA,32.4632,-86.47712,59285,58731,6275,0.106843064139892,false,122.5,940,1585.56127182255,206.628995530067
GA,MADISON,34.128484,-83.203644,30914,30519,5772,0.189128084144304,false,58,284,918.67762178948,187.617260787993
MT,PARK,45.421905,-110.532798,17484,17344,2266,0.13065036900369,false,69,240,1372.68359643102,394.646533973919
GA,BRYAN,32.017969,-81.438543,46681,46400,3357,0.0723491379310345,false,46,369,790.471498039888,98.541162357276
CA,SAN JOAQUIN,37.798763,-122.24971,787416,773079,97063,0.125553792044539,false,5391,17218,2186.64594064637,684.644457313542
CO,LINCOLN,38.99374,-103.507555,5561,4325,447,0.103352601156069,false,4,33,593.418449919079,71.9295090811005
LA,ST CHARLES,29.905722,-90.357855,,,,,true,108,552,,
GA,LAMAR,33.044018,-84.15348,19098,17985,1895,0.105365582429803,false,9,52,272.279819876427,47.1253534401508
OH,WAYNE,40.829661,-81.887194,116618,112277,9807,0.0873464734540467,false,127.5,1263.5,1083.45195424377,109.331321065359
ND,RICHLAND,46.266014,-96.60567,16550,15256,1582,0.103696906135291,false,26,222,1341.38972809668,157.099697885196
KS,JEWELL,39.787975,-98.209984,2909,2879,369,0.128169503299757,false,2,1,34.3760742523204,68.7521485046408
WI,ONEIDA,45.716198,-89.534988,38007,37407,3067,0.0819900018713075,false,48,261,686.715605020128,126.292525061173
NE,GREELEY,41.5676,-98.530566,2211,2183,244,0.111772789738891,false,0,2,90.4568068747173,0
UT,GRAND,38.573284,-109.54643,9697,9605,1632,0.169911504424779,false,48,150,1546.87016603073,494.998453129834
AL,COVINGTON,31.243987,-86.448721,37647,37028,6681,0.180431025170142,false,69,549,1458.28352856801,183.281536377401
GA,SUMTER,32.042197,-84.204259,29174,27412,6209,0.226506639427988,false,218,665,2279.42688695414,747.240693768424
SD,BEADLE,44.418265,-98.279422,19279,18915,2609,0.137932857520486,false,28,303,1571.65828103117,145.235748742155
ID,BONNER,48.312512,-116.59694,49456,48902,5231,0.106969040121058,false,46,446,901.811711420252,93.0119702361695
TX,MCLENNAN,31.306688,-97.24659,263608,254251,43507,0.171118304352785,false,974.5,5215,1978.31628782131,369.67770325635
CO,KIT CARSON,39.30534,-102.603023,7015,6922,633,0.0914475585091014,false,17,94,1339.9857448325,242.337847469708
AL,MARENGO,32.247591,-87.791091,19027,18794,4241,0.225657124614239,false,85,332,1744.88884217165,446.733589110212
TX,GUADALUPE,29.583532,-97.948858,178368,176246,15510,0.0880019972084473,false,293.5,2135,1196.96358091137,164.54745245784
NE,YORK,40.873056,-97.596742,14231,13402,1211,0.0903596478137591,false,18,132,927.552526175251,126.484435387534
IL,LAKE,42.357296,-88.10073,711885,693133,55934,0.0806973553416155,false,792,4910.5,689.788378740948,111.253924440043
MS,ITAWAMBA,34.281075,-88.363127,23942,22409,2423,0.108126199294926,false,6,69,288.196474814134,25.060563027316
FL,HARDEE,27.492846,-81.82158,25508,23615,5727,0.242515350412873,false,55,309,1211.38466363494,215.618629449584
MT,SILVER BOW,46.011528,-112.540474,35589,34543,5584,0.161653591176215,false,132,813,2284.41372334148,370.901121132934
IA,HOWARD,43.373245,-92.11591,9459,9260,778,0.0840172786177106,false,13,19,200.866899249392,137.435246854847
MS,LAMAR,31.197135,-89.514952,65081,64521,10386,0.160970846701074,false,97,1423,2186.50604631152,149.045036185676
OH,SUMMIT,41.121851,-81.534936,538087,529093,66926,0.126491939980306,false,2021.5,10670,1982.95071243126,375.682742753495
LA,OUACHITA,32.477664,-92.154848,,,,,true,1671,6041,,
TX,PALO PINTO,32.75221,-98.317974,28920,28639,4868,0.16997800202521,false,69.5,372,1286.30705394191,240.318118948824
KY,CALDWELL,37.10793,-87.88273,12631,12483,1731,0.138668589281423,false,9,129,1021.2968094371,71.2532657746813
FL,HOLMES,30.24214,-85.57792,19626,17820,2565,0.143939393939394,false,0,0,0,0
KS,EDWARDS,37.883595,-99.304746,2817,2758,453,0.164249456127629,false,19,33,1171.45899893504,674.476393326234
IL,MASON,40.301247,-90.0627,12878,12681,1778,0.140209762637016,false,23,62,481.44121758037,178.59916136046
ME,UNMAPPED COUNTY,44.417012,-69.765764,,,,,true,97,567,,
TX,NACOGDOCHES,31.610912,-94.68126,64897,59757,13307,0.222685208427465,false,138,737,1135.64571551844,212.644652295175
TX,HOPKINS,33.148959,-95.565194,37351,36750,4502,0.122503401360544,false,45,158,423.014109394661,120.478702042783
MN,WILKIN,46.362335,-96.476657,6413,6276,921,0.146749521988528,false,7,33,514.579759862779,109.153282395135
OK,MCINTOSH,35.369092,-95.671764,19237,18874,3944,0.208964713362297,false,38,263,1367.15704111868,197.535998336539
GA,TURNER,31.718232,-83.628566,8915,8657,1869,0.215894651726926,false,10,39,437.464946719013,112.170499158721
NY,TOMPKINS,42.453003,-76.473481,102879,88595,13547,0.152909306394266,false,131,2057,1999.43623091204,127.334052624928
NM,COLFAX,36.90456,-104.43978,12336,11709,1985,0.169527713724485,false,22,87,705.252918287938,178.339818417639
WY,SHERIDAN,44.816166,-106.956215,31585,30728,3012,0.0980213486071336,false,22,272,861.168276080418,69.6533164476809
TX,DIMMIT,28.521915,-99.86047,8507,8382,3758,0.448341684562157,false,24,127,1492.88820970965,282.120606559304
NC,LEE,35.476075,-79.17222,64565,63282,9787,0.154656932461047,false,97,938,1452.79950437544,150.236196081468
WI,CRAWFORD,43.24991,-90.95123,16064,15271,1918,0.125597537816777,false,46,259,1612.30079681275,286.354581673307
WA,WHITMAN,46.903322,-117.522962,47042,41126,9743,0.236906093468852,false,82,488,1037.37086008248,174.312316653204
CO,EAGLE,39.630638,-106.692944,55374,55036,4553,0.0827276691620031,false,80.5,591,1067.2878968469,145.37508578033
KY,JEFFERSON,38.218044,-85.6777,777392,762894,110819,0.145261333815707,false,5451.5,27906.5,3589.75909193817,701.254965319942
KY,TRIMBLE,38.618193,-85.355171,8531,8409,1107,0.131644666428826,false,1,11,128.941507443442,11.7219552221311
NE,FILLMORE,40.52504,-97.596705,5551,5359,423,0.0789326366859489,false,1,2,36.0295442262655,18.0147721131328
AR,ARKANSAS,34.500004,-91.55133,16773,16479,2425,0.147156987681291,false,140.5,393.5,2346.03231383772,837.655756274966
PA,NORTHUMBERLAND,40.851524,-76.709877,90925,87154,10671,0.122438442297542,false,104,709,779.763541380258,114.379983502887
RI,PROVIDENCE,41.983906,-71.51848,658977,631780,82273,0.130224128652379,false,1383,8750,1327.8156900772,209.870754214487
SC,WILLIAMSBURG,33.626463,-79.716475,30517,28958,6833,0.235962428344499,false,226.5,754.5,2472.39243700233,742.209260412229
IA,CLAY,43.079822,-95.149726,16446,16133,1848,0.114547821235976,false,13,150,912.075884713608,79.0465766751794
VA,MONTGOMERY,37.174884,-80.387314,99159,88622,21057,0.237604657985602,false,162,1373,1384.64486330036,163.37397513085
PA,UNMAPPED COUNTY,40.294674,-76.860855,,,,,true,0,0,,
AL,LAUDERDALE,34.904122,-87.650997,95037,92258,12584,0.136400095384682,false,335,1512,1590.9593105843,352.494291696918
NM,SAN JUAN,36.71903,-107.97912,121178,119767,27779,0.23194202075697,false,854,1857,1532.45638647279,704.748386670848
WY,WESTON,43.85474,-104.20272,6835,6367,668,0.104915972985708,false,15,67,980.248719824433,219.45866861741
CA,MERCED,37.061142,-120.849655,285597,280675,51655,0.184038478667498,false,1625,6254,2189.79891245356,568.983567754563
CA,SAN FRANCISCO,37.727239,-123.032229,836321,823358,87135,0.105828813225839,false,5713,45655,5459.02829176835,683.110910762733
VT,WASHINGTON,44.323574,-72.75518,59958,58310,5456,0.0935688561138741,false,148,915,1526.06824777344,246.839454284666
OH,MORGAN,39.648872,-81.85399,13758,13551,1936,0.142867685041694,false,30,101,734.118331152784,218.054949847362
OH,DEFIANCE,41.286934,-84.36355,38258,37422,3731,0.0997007108118219,false,54,346,904.38601076899,141.146949657588
NE,BUFFALO,40.855226,-99.074983,50323,48068,5297,0.110198052758592,false,137,745,1480.43638097888,272.241321065914
MD,HARFORD,39.548725,-76.09505,262509,260965,18271,0.0700132201636235,false,613,2547,970.252448487481,233.515803267698
MN,WATONWAN,43.978366,-94.614128,11169,11025,1438,0.130430839002268,false,16,66,590.92130002686,143.25364849136
GA,TALBOT,32.704603,-84.530029,5753,5697,1232,0.216254168860804,false,28.5,74,1286.28541630454,495.393707630801
NC,GRANVILLE,36.299884,-78.657634,61439,57048,8020,0.14058336839153,false,173,712,1158.87302853237,281.580103842836
TX,OLDHAM,35.401921,-102.59762,2097,1704,301,0.176643192488263,false,1,9,429.184549356223,47.6871721506915
TX,SAN PATRICIO,27.890156,-97.31499,69519,68565,10387,0.151491285641362,false,130,760.5,1093.94554006818,186.999237618493
SC,HAMPTON,32.778323,-81.143362,18555,17959,3597,0.200289548415836,false,137,437.5,2357.85502559957,738.345459444894
MO,GASCONADE,38.34807,-91.50036,14774,14444,1626,0.112572694544448,false,15,131,886.692838770814,101.52971436307
LA,RED RIVER,32.101213,-93.34905,,,,,true,28,103,,
GA,LEE,31.818419,-84.146681,33337,32059,2256,0.0703702548426339,false,63,291,872.903980562138,188.979212286648
IL,STEPHENSON,42.349726,-89.665994,44042,43295,5683,0.131262270470031,false,74,370,840.107170428228,168.021434085646
AL,PICKENS,33.296808,-88.096878,18843,17181,3878,0.225714452010942,false,34,106,562.543119460808,180.438359072335
VA,GALAX CITY,36.66564,-80.914308,6698,6429,1503,0.233784414372375,false,23,269,4016.12421618394,343.386085398626
PA,DAUPHIN,40.195194,-76.73214,287484,282730,34738,0.122866338909914,false,984,3727,1296.41997467685,342.279918186751
TX,LEE,30.321105,-96.976365,17758,17357,2121,0.12219853661347,false,37,187,1053.0465142471,208.356796936592
AR,WASHINGTON,36.0264,-94.0277,251863,242703,35887,0.147863850055418,false,965,5360,2128.14109257811,383.144804913783
MN,TRAVERSE,45.806145,-96.49276,3279,3177,321,0.101038715769594,false,3,7,213.479719426654,91.4913083257091
TX,WALLER,30.013578,-95.982102,59455,54763,7387,0.134890345671347,false,194,1282.5,2157.09360020183,326.297199562694
MI,BENZIE,44.648621,-86.494317,18177,17926,1824,0.101751645654357,false,38,87,478.62683611157,209.055399680915
LA,EAST BATON ROUGE,30.589071,-91.165436,,,,,true,2852,18345,,
IN,ORANGE,38.556114,-86.466995,19746,19422,2575,0.132581608485223,false,0,0,0,0
KY,LAWRENCE,38.074453,-82.738316,16171,16055,3529,0.219806913734039,false,9,73,451.425391132274,55.6551852080886
MO,LEWIS,40.084559,-91.728803,9945,9160,1400,0.152838427947598,false,0,41,412.267471091001,0
NM,SIERRA,33.119479,-107.188161,11511,11270,2810,0.249334516415262,false,61,155,1346.53809399705,529.927895056902
NC,NORTHAMPTON,36.421774,-77.398352,17212,16573,3311,0.199782779219212,false,97,332,1928.88682314664,563.560306762724
AL,JACKSON,34.764095,-85.979956,52839,52233,8758,0.167671778377654,false,24,97,183.576524915309,45.4209958553341
CO,COSTILLA,37.277547,-105.42894,3571,3551,793,0.223317375387215,false,0,0,0,0
VA,SHENANDOAH,38.856204,-78.573987,44630,44140,5440,0.12324422292705,false,70,420,941.071028456195,156.845171409366
KY,OWSLEY,37.423614,-83.691628,4021,3862,960,0.248575867426204,false,0,1,24.869435463815,0
MT,TREASURE,46.209558,-107.280369,761,761,82,0.107752956636005,false,2,0,0,262.81208935611
OH,MEDINA,41.116051,-81.899566,183049,181474,11133,0.0613476310656072,false,97.5,1061,579.626220301668,53.2644264650449
IN,DEKALB,41.366367,-85.054344,43584,43033,4354,0.101178165593847,false,28,202,463.472834067548,64.2437591776799
KY,KNOTT,37.354703,-82.949138,14046,13545,3511,0.259210040605389,false,0,10,71.1946461626086,0
NE,DEUEL,41.111903,-102.332609,1865,1860,169,0.0908602150537635,false,0,0,0,0
NC,BERTIE,36.06133,-76.962367,17482,15931,3152,0.197853242106585,false,79,184,1052.51115433017,451.893376043931
MI,BAY,43.608883,-83.85207,103235,102335,14358,0.140303903845214,false,330,1326.5,1284.93243570495,319.659030367608
VA,BOTETOURT,37.553005,-79.804564,33875,33458,2037,0.0608823001972622,false,49,241,711.439114391144,144.649446494465
PA,SNYDER,40.792522,-77.04613,39711,36678,3143,0.0856916952941818,false,26,246,619.47571201934,65.4730427337514
CA,SHASTA,40.453262,-122.298325,181554,178633,23179,0.129757659558984,false,910,2094,1153.37585511749,501.228284697666
TX,DEWITT,29.092402,-97.28901,19853,17985,2855,0.158743397275507,false,93,202.5,1019.99697778673,468.443056465018
CO,BENT,37.931891,-103.077584,5524,4252,1348,0.317027281279398,false,10,82,1484.43157132513,181.028240405503
IL,CALHOUN,39.164262,-90.666295,4406,4309,251,0.0582501740543049,false,9,14,317.748524738992,204.266908760781
IL,RANDOLPH,38.211727,-89.99301,30142,27285,3343,0.122521531977277,false,20,110,364.939287373101,66.3525977042001
OH,HOLMES,40.565309,-81.929869,44312,43496,3831,0.0880770645576605,false,5,195.5,441.189745441415,11.2836252031053
IN,WASHINGTON,38.59752,-86.0918,28167,27667,3724,0.134600787942314,false,22,73,259.168530549934,78.1055845492953
AK,KENAI PENINSULA,60.366668,-152.322283,,,,,true,66,267,,
MS,NOXUBEE,33.10627,-88.565787,10136,9941,2543,0.255809274720853,false,21,35,345.303867403315,207.182320441989
WV,KANAWHA,38.365562,-81.69602,178198,175075,28216,0.161165214907897,false,880,4328,2428.75902086443,493.832702948406
VA,MARTINSVILLE CITY,36.683527,-79.863647,13584,13145,2871,0.218410041841004,false,55,215,1582.74440518257,404.888103651355
MO,RIPLEY,36.617596,-90.82849,10755,10632,2097,0.197234762979684,false,8,84,781.032078103208,74.3840074384007
IL,JERSEY,39.080192,-90.361365,21336,20345,2028,0.0996805111821086,false,30,197,923.322084739408,140.607424071991
TX,KARNES,28.884966,-97.90256,14819,11353,2419,0.213071434863032,false,16,166,1120.18354814765,107.969498616641
OH,FAIRFIELD,39.730156,-82.60232,161289,157583,12903,0.0818806597158323,false,2784,17485.5,10841.098897011,1726.09415397206
GA,TWIGGS,32.68013,-83.333824,7869,7773,1160,0.149234529782581,false,8,63,800.609988562714,101.664760452408
NY,WARREN,43.555105,-73.838139,65560,64721,5910,0.0913150291250135,false,89,925,1410.92129347163,135.75350823673
GA,BRANTLEY,31.197334,-81.982978,18171,18043,3054,0.169262317796375,false,43,268,1474.87755214353,236.64080127676
AZ,LA PAZ,33.727625,-114.038793,16605,16270,3001,0.184449907805778,false,36,259,1559.77115326709,216.80216802168
SD,CLARK,44.855211,-97.724912,3876,3740,416,0.111229946524064,false,2,15,386.996904024768,51.5995872033024
AR,CROSS,35.223675,-90.78702,16681,16496,3314,0.200897187196896,false,73,292,1750.49457466579,437.623643666447
LA,ASSUMPTION,29.899884,-91.050528,,,,,true,0,0,,
IA,MARION,41.31703,-93.09643,33551,31814,2248,0.0706607154083108,false,70.5,187.5,558.850704897022,210.12786504128
KY,CLINTON,36.728865,-85.153426,9240,9090,1674,0.184158415841584,false,3,24,259.74025974026,32.4675324675325
OH,JACKSON,39.051533,-82.63976,32588,32037,5659,0.176639510565908,false,56,419,1285.74935559102,171.842395973978
LA,LIVINGSTON,30.440419,-90.727474,,,,,true,622,2448,,
TN,ROANE,35.847249,-84.523942,54403,53872,6854,0.127227502227502,false,192,791,1453.96393581236,352.921713876073
MO,HOLT,40.095724,-95.219072,4254,4135,405,0.097944377267231,false,10,34,799.24776680771,235.072872590503
VA,WINCHESTER CITY,39.185524,-78.16138,27981,26847,5182,0.193019704250009,false,84,705,2519.5668489332,300.203709660127
FL,COLLIER,26.158545,-81.75276,387681,383948,40135,0.104532384593747,false,631,2737,705.992813679288,162.762683752879
MS,COPIAH,31.866915,-90.448758,27994,26927,6184,0.229657964125227,false,0,4,14.2887761663214,0
IL,LOGAN,40.009422,-89.28384,27870,24497,3346,0.136588153651468,false,28,224,803.73161105131,100.466451381414
NY,JEFFERSON,44.213318,-75.79902,116130,110709,14832,0.133972847735956,false,190,1758,1513.82071816068,163.609747696547
GA,BANKS,34.351922,-83.498441,18757,18666,2396,0.128361727204543,false,28.5,212,1130.24470864211,151.943274510849
VA,DINWIDDIE,37.073498,-77.635492,28083,27348,2923,0.106881673248501,false,113,310,1103.87066908806,402.378663248228
KS,GRAY,37.744513,-100.451716,5696,5514,383,0.0694595574900254,false,5,57,1000.70224719101,87.7808988764045
FL,HERNANDO,30.423128,-84.28066,201512,198366,23818,0.120070979905831,false,516,2224,1103.65635793402,256.064154988289
NE,MERRICK,41.169801,-98.031051,7696,7561,661,0.0874222986377463,false,2,11,142.931392931393,25.987525987526
NC,CUMBERLAND,35.050192,-78.828719,336749,318188,54794,0.172206368561982,false,2002,7854,2332.30091254911,594.508075747812
NC,JONES,35.03216,-77.356443,9245,9131,1942,0.212682072062206,false,14,53,573.28285559762,151.433207138994
KY,CARLISLE,36.857726,-88.975757,4763,4697,783,0.166702150308708,false,4,18,377.913079991602,83.9806844425782
SD,JACKSON,43.677506,-101.626323,2826,2753,1031,0.374500544860153,false,0,0,0,0
TX,EDWARDS,29.985877,-100.307373,1392,1356,343,0.252949852507375,false,7,28,2011.49425287356,502.873563218391
WY,FREMONT,43.03264,-108.38061,39472,38471,4766,0.123885524161056,false,71,375,950.040535062829,179.874341305229
IN,HUNTINGTON,40.88037,-85.490814,36757,35291,3564,0.100988920687994,false,11,93,253.013031531409,29.9262725467258
AR,VAN BUREN,35.582959,-92.515977,15936,15742,3069,0.194956168212425,false,70.5,178.5,1120.10542168675,442.394578313253
LA,EVANGELINE,30.720693,-92.404086,,,,,true,30,228,,
MO,FRANKLIN,38.352306,-90.98075,105316,103811,8534,0.0822070878808604,false,185.5,1252.5,1189.27798245281,176.136579437123
NE,WEBSTER,40.180646,-98.49859,3385,3300,328,0.0993939393939394,false,4,1,29.5420974889217,118.168389955687
GA,CHATTOOGA,34.474178,-85.345289,24975,23373,4696,0.20091558636033,false,25,292,1169.16916916917,100.1001001001
KS,GRAHAM,39.365746,-99.841965,2406,2371,267,0.112610712779418,false,2,8,332.502078137988,83.1255195344971
IN,DAVIESS,38.65781,-87.17127,33442,32757,3419,0.104374637482065,false,24,91,272.112911907183,71.7660427007954
MN,CHISAGO,45.38811,-92.83659,57434,55999,3322,0.0593224879015697,false,87,360,626.80642128356,151.47821847686
TN,COCKE,35.916198,-83.119223,36503,35870,7275,0.202815723445776,false,203,727,1991.6171273594,556.118675177383
GA,FORSYTH,34.225143,-84.127435,260062,258953,11712,0.0452282846694188,false,151,1132,435.280817651176,58.0630772661904
IA,STORY,42.037538,-93.466093,98592,86298,16046,0.185937101670954,false,143,1172,1188.73742291464,145.042194092827
TX,BRAZOS,30.687794,-96.3732,237980,220120,52536,0.238669816463747,false,621,3669,1541.72619547861,260.946298008236
WI,DOUGLAS,46.72193,-92.09668,44197,42985,4478,0.104175875305339,false,68,708,1601.9186822635,153.856596601579
GA,BAKER,31.31958,-84.454881,2830,2830,832,0.293992932862191,false,0,0,0,0
IA,JEFFERSON,41.01005,-91.97883,15676,14711,2141,0.145537353001156,false,17,104,663.434549630008,108.446032151059
TX,ZAPATA,26.996981,-99.182603,13855,13602,5092,0.374356712248199,false,7,73,526.885600866113,50.5232767953807
PA,LANCASTER,40.09903,-76.10034,555151,540613,47050,0.0870308335167671,false,571,4062,731.692818710585,102.854898937406
IL,SHELBY,39.406464,-88.79211,20867,20631,2053,0.0995104454461732,false,20.5,65,311.496621459721,98.2412421526813
WY,WASHAKIE,44.01688,-107.95574,7708,7545,651,0.0862823061630219,false,4,40,518.941359626362,51.8941359626362
NE,JOHNSON,40.395457,-96.268562,5263,4303,293,0.0680920288171043,false,2,2,38.001140034201,38.001140034201
CO,ELBERT,39.310582,-104.117729,27152,27095,1444,0.053293965676324,false,8,67,246.758986446671,29.4637595757219
MN,GOODHUE,44.406178,-92.716,47844,46887,4344,0.0926482820397978,false,62,530.5,1108.81197224312,129.587827104757
UT,MILLARD,39.09454,-113.525014,13179,13012,1142,0.0877651398708884,false,25,121,918.127323772669,189.695728052204
KY,TAYLOR,37.34084,-85.34592,26205,24985,4156,0.166339803882329,false,26,280,1068.4983781721,99.2177065445526
CA,IMPERIAL,33.040816,-115.355395,179319,171599,33705,0.196417228538628,false,460,2109,1176.11630669366,256.526079221945
NJ,GLOUCESTER,39.782272,-75.16916,304504,298445,22676,0.0759804989193989,false,410,4708,1546.1209048157,134.645193494995
MI,ST JOSEPH,41.911488,-85.52287,,,,,true,209,716,,
SD,FAULK,45.065476,-99.153564,2137,2070,529,0.255555555555556,false,2,3,140.383715489003,93.5891436593355
ND,OLIVER,47.118079,-101.33142,1821,1820,86,0.0472527472527473,false,0,0,0,0
AR,MONTGOMERY,34.545652,-93.664147,8571,8452,1762,0.208471367723616,false,31.5,57.5,670.866876677167,367.518375918796
VT,UNMAPPED COUNTY,44.274953,-72.609475,,,,,true,0,0,,
TX,OCHILTREE,36.278744,-100.815864,9852,9757,1516,0.155375627754433,false,32,61,619.163621599675,324.807145757207
OH,BROWN,38.8646,-83.90439,43710,43065,7498,0.174108905143388,false,15,89,203.614733470602,34.3170899107756
CO,LARIMER,40.402042,-105.08795,363561,353725,39240,0.110933634885858,false,1085.5,8011.5,2203.61920007922,298.57437954016
TN,MACON,36.537757,-86.000959,25793,25469,3871,0.151988692135537,false,55,199,771.527158531384,213.236149342845
CO,BOULDER,40.018864,-105.24995,328317,315677,36145,0.114499947731384,false,839.5,7452,2269.75758184925,255.697999189807
LA,CAMERON,29.871888,-93.165539,,,,,true,25,86,,
CT,NAUGATUCK VALLEY PLANNING REGION,41.397545,-73.07271,452303,446387,46175,0.103441632484817,false,613,6464,1429.13047227191,135.528616878508
TX,KENDALL,29.944524,-98.711094,46971,46241,2353,0.0508855777340455,false,41,431.5,918.651934172149,87.2879010453258
KY,LEE,37.607902,-83.719309,7375,6498,1876,0.288704216682056,false,3,35,474.576271186441,40.6779661016949
MI,OAKLAND,42.46606,-83.49233,1272294,1260613,96989,0.0769379658943704,false,2615.5,13858,1089.21365659195,205.573554540067
VA,BATH,37.81733,-79.80464,4123,3987,841,0.210935540506647,false,2,9,218.287654620422,48.5083676934271
NM,DONA ANA,32.350912,-106.832182,,,,,true,1060,7635,,
UT,UINTAH,40.45717,-109.52571,36458,35930,3991,0.111077094350125,false,69,236,647.320204070437,189.258873223984
WI,FOND DU LAC,43.808,-88.47955,104053,100645,8792,0.0873565502508818,false,236,953.5,916.359931957752,226.807492335637
IN,OHIO,38.940527,-84.964299,5993,5942,529,0.0890272635476271,false,0,0,0,0
NV,PERSHING,40.439639,-118.409477,6505,4718,380,0.0805426027977957,false,5,18,276.710222905457,76.8639508070715
GA,SPALDING,33.23751,-84.19607,68215,66941,12519,0.18701543149938,false,366,1320,1935.05827164113,536.538884409587
IL,PERRY,38.08011,-89.381836,20810,18320,3098,0.16910480349345,false,23,76,365.209034118212,110.523786641038
NJ,HUDSON,40.76766,-74.0235,710478,701665,103860,0.148019353965211,false,2278,12187,1715.32404944277,320.629210193701
TX,GONZALES,29.468704,-97.477738,19764,19467,2828,0.14527148507731,false,165,251,1269.98583282736,834.85124468731
GA,STEPHENS,34.552914,-83.290216,26842,25770,3587,0.139192859914629,false,40,369,1374.71127337754,149.020192236048
TN,HAMILTON,35.159186,-85.202296,370913,361793,45380,0.125430840287126,false,2478,10795,2910.38599348095,668.081194242316
PA,WASHINGTON,40.200005,-80.252132,209778,204399,19123,0.093557209183998,false,321,1544,736.016169474397,153.018905700312
MS,AMITE,31.203933,-90.795542,12611,12496,3379,0.270406530089629,false,11,14,111.014193957656,87.2254381095869
MT,SWEET GRASS,45.81306,-109.941312,3713,3685,288,0.0781546811397558,false,7,26,700.242391597091,188.526797737678
VA,PETERSBURG CITY,37.20473,-77.392368,33365,32874,6930,0.210804891403541,false,234,1140,3416.75408362056,701.333732953694
NC,RUTHERFORD,35.367447,-81.95726,64850,63623,11196,0.175974097417601,false,132,970,1495.75944487278,203.546646106399
PA,MONTOUR,40.961903,-76.61777,18079,17209,1509,0.0876866755767331,false,51,143,790.972952043808,282.095248631008
NC,DAVIE,35.89376,-80.561844,43526,43186,4310,0.0998008613902654,false,135,669,1537.01236042825,310.159444929467
LA,MADISON,32.407642,-91.187164,,,,,true,91,43,,
TX,GOLIAD,28.665903,-97.3847,7096,7001,645,0.0921296957577489,false,13,64,901.916572717024,183.201803833145
IA,WAPELLO,41.016605,-92.40911,35265,34359,5743,0.167146890188888,false,121,828,2347.93704806465,343.116404366936
NH,ROCKINGHAM,42.988842,-71.098746,317163,314843,15031,0.0477412551652729,false,244,2318,730.854481764897,76.9320507120944
TN,MARION,35.133422,-85.618399,29010,28686,4854,0.169211462037231,false,63,233,803.171320234402,217.166494312306
AR,CRITTENDEN,35.211878,-90.315331,47609,46760,9684,0.207100085543199,false,814,1818,3818.60572580815,1709.76075952026
FL,SANTA ROSA,30.703633,-87.014255,193719,188472,15911,0.084421028057218,false,268,1411,728.374604452842,138.344715799689
VA,UNMAPPED COUNTY,37.531399,-77.476009,,,,,true,0,0,,
NM,LINCOLN,33.740941,-105.449083,20227,20002,3205,0.16023397660234,false,4,11,54.3827557225491,19.7755475354724
NM,SANDOVAL,35.685071,-106.882619,151538,150756,15123,0.100314415346653,false,348.5,1111,733.149441064288,229.975319721786
ID,TETON,43.760994,-111.211765,12101,12075,1136,0.0940786749482402,false,22,34,280.96851499876,181.803156763904
AR,JACKSON,35.596605,-91.223178,16775,14360,3044,0.211977715877437,false,91,358,2134.12816691505,542.4739195231
MO,DENT,37.64598,-91.53612,14506,14325,2046,0.14282722513089,false,37,180,1240.86584861437,255.066868881842
IA,TAMA,41.99561,-92.58011,16982,16572,2544,0.153511947863867,false,14,48,282.652219997645,82.4402308326463
AR,COLUMBIA,33.288986,-93.23718,22527,20458,4642,0.226903900674553,false,71,371,1646.91259377636,315.177342744262
NY,CHAUTAUQUA,42.304216,-79.407595,126329,121678,20703,0.170145794638308,false,339,2158,1708.23801344109,268.346935383008
MI,GOGEBIC,46.477707,-89.94104,14348,14045,2100,0.149519401922392,false,13,82,571.508224142738,90.6049623640926
VA,BLAND,37.130612,-81.125853,6211,5265,668,0.12687559354226,false,2,41,660.11914345516,32.200933827081
AR,GARLAND,34.578861,-93.146915,100062,98558,16237,0.164745632013637,false,509,3490,3487.83754072475,508.684615538366
TN,BLEDSOE,35.593668,-85.205979,14905,13723,3427,0.249726736136413,false,6,49,328.748742032875,40.2549480040255
IA,SIOUX,43.00579,-96.05822,35984,33755,2172,0.0643460228114353,false,38.5,116.5,323.75500222321,106.991996442864
GA,PICKENS,34.468723,-84.43023,34197,33824,4502,0.133100756859035,false,12,160,467.877299178291,35.0907974383718
GA,TOOMBS,32.21141,-82.32324,26943,26597,5252,0.197465879610482,false,50.5,266.5,989.125190216383,187.432728352448
AL,MARSHALL,34.3587,-86.29298,98712,97268,15841,0.162859316527532,false,186.5,1196,1211.6054785639,188.933463003485
PA,BEDFORD,39.99862,-78.494751,47503,46922,5151,0.109777929329526,false,62,349,734.690440603751,130.518072542787
VT,BENNINGTON,43.178684,-73.04883,37312,36364,4128,0.113518864811352,false,93,482,1291.80960548885,249.249571183533
SC,HORRY,33.909269,-78.976675,368937,362435,46454,0.128171948073448,false,1467,8635,2340.50800001084,397.628863464494
NE,CUMING,41.915865,-96.788517,8976,8841,686,0.0775930324623911,false,3,16,178.25311942959,33.4224598930481
WI,WAUKESHA,43.019308,-88.306707,409040,405003,21085,0.0520613427554858,false,311.5,2908,710.932916096225,76.1539213768825
IA,POLK,41.684281,-93.56972,497441,488661,49165,0.100611671485959,false,1101.5,6937.5,1394.63775603539,221.433295606916
OK,TULSA,36.154087,-95.995735,673708,662257,97074,0.146580557094904,false,2384,11276,1673.7221466867,353.862504230319
LA,CONCORDIA,31.642176,-91.55464,,,,,true,75,238,,
FL,MONROE,24.7114,-81.09389,81840,80849,8412,0.104045813801037,false,255,942,1151.02639296188,311.58357771261
NV,EUREKA,39.977788,-116.272208,1660,1654,365,0.220677146311971,false,16,43,2590.36144578313,963.855421686747
IN,PERRY,38.081436,-86.62654,19218,17801,2285,0.128363575080052,false,39,155,806.535539598293,202.934748673119
IN,FULTON,41.065823,-86.21438,20411,20132,2541,0.126216968011127,false,1,6,29.3959139679585,4.89931899465974
TX,LYNN,33.178412,-101.818493,5667,5602,980,0.17493752231346,false,15,30,529.380624669137,264.690312334569
IN,CLINTON,40.2816,-86.51342,32967,32102,2744,0.0854775403401657,false,25,286,867.534200867534,75.8334091667425
KS,COWLEY,37.234507,-96.837247,34487,32150,4455,0.138569206842924,false,129,749,2171.83286455766,374.053991359063
NJ,WARREN,40.853524,-75.009542,110238,108645,8827,0.081246260757513,false,73,944,856.329033545601,66.2203595856238
SC,BAMBERG,33.203021,-81.053161,13164,12386,2676,0.216050379460681,false,86,335,2544.8192038894,653.296870252203
SC,KERSHAW,34.338356,-80.590885,66924,66533,9358,0.140652007274586,false,275,1378,2059.05205905206,410.913872452334
ID,OWYHEE,42.593063,-116.142655,12284,12121,1620,0.133652338915931,false,24,33,268.642136112016,195.376098990557
WA,KING,47.631954,-122.212746,2262713,2231897,186954,0.0837646181701037,false,10114.5,88340.5,3904.18493198209,447.007640827626
RI,KENT,41.701786,-71.45817,170658,169107,12500,0.073917697079364,false,168,1801,1055.32702832566,98.442499033154
MD,ANNE ARUNDEL,38.993374,-76.560511,590936,580311,31842,0.0548705780176492,false,1992,9786,1656.01689523062,337.092341641058
AR,CRAWFORD,35.583041,-94.236224,60792,59559,9998,0.167867156936819,false,187,1078,1773.25963942624,307.606263982103
CA,MODOC,37.798763,-122.24971,8646,8468,1717,0.20276334435522,false,52,53,613.000231320842,601.434189220449
AZ,YUMA,32.773942,-113.910905,207685,200032,32921,0.164578667413214,false,719,2510,1208.56104196259,346.197366203626
GA,LAURENS,32.39322,-82.926317,49619,48813,10944,0.22420256898777,false,94,368,741.651383542595,189.443559926641
CO,CROWLEY,38.221676,-103.75666,5734,4177,762,0.182427579602586,false,3,34,592.954307638647,52.3194977328218
TX,SUTTON,30.568474,-100.642075,3306,3288,381,0.115875912408759,false,4,7,211.736237144586,120.992135511192
MI,GENESEE,43.177414,-83.7401,404087,399259,63645,0.159407802954974,false,2653,6354.5,1572.55739481844,656.541784318723
SD,KINGSBURY,44.362969,-97.499313,5210,5105,496,0.0971596474045054,false,0,5,95.9692898272553,0
NE,OTOE,40.637992,-96.131027,16075,15867,1514,0.0954181634839604,false,17,147,914.463452566096,105.754276827372
GA,MACON,32.366216,-84.052162,11953,9948,2537,0.255026135906715,false,11,17,142.223709528989,92.0271061658161
ND,ROLETTE,48.768271,-99.840463,12065,11644,2920,0.250772930264514,false,8,52,430.998756734356,66.3075010360547
FL,WALTON,30.631211,-86.176614,79846,77981,8912,0.114284248727254,false,150,498,623.700623700624,187.861633644766
KS,ANDERSON,38.27986,-95.241455,7819,7704,840,0.109034267912773,false,7,66,844.097710704694,89.5255147717099
WA,KITSAP,47.538002,-122.63901,276581,268801,22299,0.0829572806648785,false,825,5153,1863.10701024293,298.285131661249
MT,MUSSELSHELL,46.449062,-108.541885,5068,5000,765,0.153,false,9,25,493.291239147593,177.584846093133
FL,TAYLOR,30.091877,-83.57286,21422,18627,3225,0.1731357706555,false,120,345,1610.49388479134,560.171786014378
MO,SULLIVAN,40.202194,-93.12458,5903,5760,849,0.147395833333333,false,4,31,525.156699983059,67.7621548365238
IL,FAYETTE,39.02734,-88.848755,21380,20165,3324,0.164840069427225,false,40,184,860.617399438728,187.090739008419
TN,RUTHERFORD,35.83635,-86.409584,351591,346097,31796,0.091870198239222,false,1406,6563,1866.65756518227,399.896470615004
MT,GRANITE,46.395358,-113.425683,3419,3347,349,0.104272482820436,false,16,34,994.442819537877,467.973091547236
IN,WARRICK,38.04901,-87.274055,64650,63576,4053,0.0637504718761797,false,196,528,816.705336426914,303.170920340294
PA,ELK,41.42086,-78.73867,30703,30330,2756,0.0908671282558523,false,29,214,697.000293130965,94.4533107513924
IA,PLYMOUTH,42.737585,-96.215864,25699,25317,1712,0.0676225461152585,false,271.5,1648,6412.70088330285,1056.46134090821
NC,GASTON,35.28488,-81.28466,231485,227676,29054,0.127611166745726,false,1024.5,5525.5,2386.97971790829,442.577272825453
TX,KENT,33.18478,-100.76972,727,670,56,0.0835820895522388,false,0,0,0,0
TX,CULBERSON,31.445908,-104.526945,2181,2165,383,0.176905311778291,false,0,0,0,0
NM,SAN MIGUEL,35.591564,-105.22732,27036,25896,5689,0.219686438059932,false,139,292,1080.04142624649,514.129309069389
NC,BUNCOMBE,35.609371,-82.530426,271790,265007,31202,0.11774028610565,false,1054,5804,2135.47223959675,387.79940395158
TN,CUMBERLAND,35.941387,-85.02328,62529,61949,8307,0.134094174240101,false,136,682,1090.69391802204,217.499080426682
VA,SPOTSYLVANIA,38.266205,-77.49507,143876,142947,9974,0.0697741120834995,false,361,741,515.026828658011,250.910506269287
AR,MILLER,33.421623,-94.04305,42588,41304,8694,0.210488088320744,false,323,1302,3057.19921104537,758.429604583451
FL,ORANGE,29.179031,-82.149666,1440471,1401137,182784,0.130454052672936,false,374,2726,189.243657109376,25.9637299188946
NJ,SOMERSET,40.6983,-74.54763,346203,343350,18851,0.0549031600407747,false,184,2944,850.36813661349,53.1480085383431
MO,PIKE,39.339959,-91.171607,17623,15868,2582,0.162717418704311,false,38,125,709.300346138569,215.627305226125
IL,BOND,38.8887,-89.412445,16627,14562,1846,0.126768301057547,false,13,82,493.17375353341,78.1860828772479
IA,CEDAR,41.763645,-91.12222,18427,18056,1308,0.0724412937527692,false,31.5,75.5,409.724860259402,170.9448092473
ID,BEAR LAKE,42.285833,-111.327445,6552,6493,660,0.101647928538426,false,5,34,518.925518925519,76.3125763125763
VA,HENRICO,37.542297,-77.38501,334434,330801,27912,0.0843770121613901,false,666,7525,2250.07026797515,199.142431690558
FL,LEE,26.551527,-81.892457,792692,780517,91539,0.117279956746618,false,2286,8634,1089.19984054336,288.384391415581
OK,WOODS,36.8048,-98.66453,8619,7674,1463,0.190643732082356,false,10,103,1195.03422670843,116.02274045713
VA,SOUTHAMPTON,36.685932,-76.99701,17988,16494,1427,0.0865163089608343,false,27,159,883.922615076718,150.100066711141
WY,BIG HORN,44.525654,-107.99332,11737,11473,1372,0.119585112873703,false,0,0,0,0
KY,DAVIESS,37.731671,-87.087139,103195,100445,15314,0.152461546119767,false,233,2322,2250.10901690973,225.786133049082
WI,RUSK,45.464275,-91.098045,14146,13909,1737,0.12488316917104,false,31,44,311.04199066874,219.143220698431
OH,ASHLAND,40.843274,-82.270121,52296,50716,6988,0.137786891710703,false,87,361.5,691.257457549335,166.360715924736
OH,COLUMBIANA,40.879005,-80.7554,101203,97788,13547,0.138534380496584,false,95,509.5,503.443573807101,93.8707350572611
ID,PAYETTE,44.0748,-116.9365,26190,25864,2332,0.0901639344262295,false,74,177,675.830469644903,282.550591828942
IA,ADAMS,41.021656,-94.696906,3641,3561,339,0.0951979780960404,false,15,4,109.859928591046,411.974732216424
OK,GRANT,36.80856,-97.73369,4137,4025,543,0.134906832298137,false,2,27,652.646845540247,48.344210780759
KY,LESLIE,37.087846,-83.388617,10261,9895,2701,0.272966144517433,false,6,14,136.438943572751,58.4738329597505
NE,SIOUX,42.485675,-103.744068,1197,1197,137,0.114452798663325,false,1,1,83.5421888053467,83.5421888053467
OK,SEQUOYAH,35.502435,-94.750757,39676,39223,7967,0.203120618004742,false,157,658,1658.43330980946,395.705212218974
HI,HONOLULU,21.304317,-157.85077,1003666,972612,88808,0.0913087644404963,false,2182,20949,2087.24814828838,217.403000599801
OK,MCCURTAIN,34.028564,-94.73709,30825,30456,6423,0.210894405043341,false,92,782,2536.90186536902,298.45904298459
LA,ASCENSION,30.202946,-90.910023,,,,,true,429,2638,,
ID,LEWIS,46.23299,-116.24048,3649,3616,629,0.173949115044248,false,2,31,849.54782132091,54.8095368594135
IA,CRAWFORD,42.017834,-95.35737,16289,16095,2635,0.163715439577509,false,17,84,515.685431886549,104.364908834183
TX,BROOKS,27.034994,-98.215276,6987,6561,2011,0.30650815424478,false,16,17,243.30900243309,228.99670817232
SC,BEAUFORT,32.358147,-80.68932,192123,185923,19494,0.104849857198948,false,687.5,2989.5,1556.0344154526,357.84367306361
IN,JASPER,40.93574,-87.15165,33198,32572,2259,0.0693540464202382,false,0,0,0,0
CA,EL DORADO,37.798763,-122.24971,192299,190642,15754,0.0826365648702804,false,522,1861,967.76374292118,271.452269642588
ID,CASSIA,42.535473,-113.79283,25165,24786,2546,0.102719277011216,false,24,232,921.915358633022,95.3705543413471
NY,SCHENECTADY,42.809704,-73.93967,159603,155459,19384,0.124688824706193,false,569,3743,2345.19401264387,356.509589418745
AR,SHARP,36.259796,-91.54158,17597,17277,2997,0.173467615905539,false,14.5,53,301.187702449281,82.4004091606524
TX,CONCHO,31.318865,-99.863648,3301,2426,323,0.133140972794724,false,0,12,363.526204180551,0
NE,HOLT,42.459287,-98.784766,10093,9950,1078,0.108341708542714,false,2,8,79.2628554443674,19.8157138610918
WA,FERRY,48.473256,-118.533589,7326,7253,1131,0.155935474975872,false,13,18,245.700245700246,177.450177450177
MO,STE GENEVIEVE,37.968,-90.05517,,,,,true,72,134,,
NE,DODGE,41.577008,-96.645853,37146,36101,3365,0.0932107143846431,false,54,231,621.870457115167,145.372314650299
TN,LINCOLN,35.161266,-86.558624,35617,35088,4359,0.124230506155951,false,125,362,1016.3685880338,350.956004155319
AR,LITTLE RIVER,33.699497,-94.229774,11959,11708,1927,0.164588315681585,false,46,162,1354.62831340413,384.64754578142
FL,WAKULLA,30.426645,-84.249504,34608,31471,1758,0.0558609513520384,false,25,120,346.740638002774,72.2376329172446
KS,LOGAN,39.126472,-100.860344,2720,2691,355,0.131921218877741,false,1.5,4,147.058823529412,55.1470588235294
KS,RICE,38.347178,-98.201415,9389,8747,644,0.0736252429404367,false,21,73,777.505591649803,223.665992118436
ND,HETTINGER,46.434939,-102.458385,2453,2312,215,0.0929930795847751,false,1,9,366.897676314717,40.766408479413
TX,CASTRO,34.55095,-102.31234,7328,7239,1010,0.139522033430032,false,8,29,395.742358078603,109.170305676856
CA,ORANGE,33.93234,-117.946106,3164063,3125637,296493,0.0948584240588399,false,9387,59974,1895.4742683695,296.6755086735
NE,RED WILLOW,40.16942,-100.468576,10611,10271,1449,0.141076818226073,false,7,122,1149.75025916502,65.9692771652059
KY,LINCOLN,37.457174,-84.658335,24415,24051,4459,0.185397696561474,false,15,121.5,497.644890436207,61.4376407945935
CA,SANTA CRUZ,36.96701,-122.026955,266021,255068,28613,0.112177929022849,false,1102,4087,1536.34487502866,414.253010100706
NE,SALINE,40.516802,-97.131755,14642,13989,1329,0.0950032168132104,false,32,193,1318.12593907936,218.549378500205
VA,HAMPTON CITY,37.04803,-76.297149,137334,133087,17351,0.130373364791452,false,395,4185,3047.31530429464,287.619963009888
ND,ADAMS,46.096815,-102.533198,2179,2112,307,0.145359848484848,false,2,4,183.57044515833,91.7852225791648
NE,KIMBALL,41.199274,-103.703153,3348,3264,362,0.110906862745098,false,1,25,746.714456391876,29.868578255675
NC,MACON,35.152959,-83.421901,37533,37071,5337,0.143966982277252,false,45,483.5,1288.19971758186,119.894492846295
AR,LAFAYETTE,33.36069,-93.49839,6211,6092,1658,0.272160210111622,false,27,39,627.918209628079,434.712606665593
KS,SEWARD,37.180585,-100.854741,21640,21283,2762,0.129774937743739,false,65,224,1035.12014787431,300.369685767098
NE,HALL,40.866023,-98.498004,62431,61378,7213,0.117517677343674,false,225,1188,1902.90080248594,360.397879258702
TX,JASPER,30.660553,-93.89276,32807,31610,7032,0.222461246441,false,51,428,1304.59962812814,155.454628585363
WV,POCAHONTAS,38.332513,-80.012092,7855,7488,1558,0.208066239316239,false,15,74,942.075111394017,190.961171228517
ND,MOUNTRAIL,48.210291,-102.364756,9567,9455,1244,0.131570597567425,false,7,81,846.660395108184,73.1681822932999
WV,WAYNE,38.145531,-82.419698,38498,38363,6015,0.156791700336262,false,210,966,2509.22125824718,545.482882227648
OK,WASHINGTON,36.749653,-95.977684,52895,51546,7541,0.14629651185349,false,102,707,1336.61026562057,192.834861518102
TX,ANGELINA,31.32794,-94.78142,86791,84259,13707,0.16267698406105,false,413,1628,1875.77052920234,475.855791499119
TN,SEQUATCHIE,35.38184,-85.391136,16409,16162,3812,0.235861898279916,false,62,201,1224.93753427997,377.841428484368
NC,GATES,36.442135,-76.702355,10437,10238,1212,0.118382496581364,false,14,88,843.15416307368,134.138162307176
ID,CAMAS,43.463396,-114.804427,1155,1155,77,0.0666666666666667,false,0,0,0,0
ND,BENSON,48.071743,-99.351152,5861,5832,1295,0.222050754458162,false,0,10,170.61934823409,0
NC,ALAMANCE,36.097557,-79.50723,174286,169230,23943,0.141482006736394,false,555.5,2619.5,1502.98933936174,318.728985690187
SD,BROWN,45.464905,-98.48596,38079,36990,3914,0.10581238172479,false,156,520,1365.58207936133,409.674623808398
TX,RUSK,32.1575,-94.78392,52613,47551,6795,0.142899202961031,false,138,845.5,1607.01727709882,262.292589284017
NC,ALLEGHANY,36.489356,-81.132299,11075,10970,1907,0.17383773928897,false,60,185,1670.42889390519,541.76072234763
SC,DILLON,34.390172,-79.374964,28031,27571,8057,0.292227340321352,false,318,824,2939.6025828547,1134.4582783347
MI,TUSCOLA,43.370583,-83.58016,53071,52382,6616,0.126302928486885,false,143,456.5,860.168453581052,269.450358953101
FL,HENDRY,30.423128,-84.28066,40798,39966,8630,0.215933543511985,false,78,298,730.427962155008,191.185842443257
AL,WILCOX,31.990372,-87.302216,10347,10137,2943,0.290322580645161,false,21,47,454.237943365227,202.95737895042
KY,NICHOLAS,38.312286,-84.0276,7655,7536,1396,0.185244161358811,false,3.5,20.5,267.798824297845,45.7217504898759
NE,GRANT,41.915867,-101.756875,695,685,74,0.108029197080292,false,0,0,0,0
AR,SCOTT,34.858869,-94.063641,9839,9748,1678,0.172137874435782,false,28.5,149,1514.38154283972,289.66358369753
OK,CADDO,35.16792,-98.381045,26626,25186,4782,0.189867386643373,false,98.5,430,1614.9628182979,369.939157214752
TN,PICKETT,36.559364,-85.075741,5062,5002,1292,0.258296681327469,false,0,9,177.795337811142,0
IN,VANDERBURGH,37.97335,-87.568,179908,173806,24967,0.143648665753771,false,1507,4725,2626.34235275808,837.650354625698
SD,CHARLES MIX,43.206185,-98.595143,9281,8955,2045,0.228364042434394,false,17,110,1185.21711022519,183.169917034802
NC,FRANKLIN,36.09812,-78.297966,71962,70540,7118,0.100907286645875,false,202.5,1166.5,1620.99441371835,281.398515883383
IN,SHELBY,39.52082,-85.77815,45104,44239,5091,0.115079454779719,false,68.5,375.5,832.520397304009,151.871230932955
NC,HERTFORD,36.363517,-76.981616,20492,18613,3986,0.214151399559448,false,93,324,1581.10482139371,453.835643177826
WA,GRANT,47.213633,-119.467788,100428,99494,14884,0.149596960620741,false,269,2542,2531.16660692237,267.853586649142
OH,HANCOCK,41.000471,-83.666034,74885,72990,7497,0.102712700369914,false,154,953,1272.61801428858,205.64866128063
VA,NORTHUMBERLAND,37.856974,-76.379687,12085,11988,1238,0.10326993660327,false,33,99.5,823.334712453455,273.065784029789
IA,UNION,41.059776,-94.36151,12038,11743,1480,0.126032530017883,false,33,109,905.466024256521,274.131915600598
IN,UNION,39.635426,-84.92835,7028,6969,446,0.0639977041182379,false,0,0,0,0
GA,HABERSHAM,34.635108,-83.526406,46948,44429,6064,0.13648742938171,false,27.5,180.5,384.467921956207,58.5754451733833
IN,ST JOSEPH,41.66217,-86.17931,,,,,true,1537,4930,,
NE,VALLEY,41.564094,-98.983484,4094,4031,373,0.0925328702555197,false,4,5,122.129946262824,97.7039570102589
SC,MCCORMICK,33.897605,-82.316192,9701,8745,1572,0.179759862778731,false,11,102,1051.43799608288,113.390372126585
TX,SCHLEICHER,30.896233,-100.527216,2426,2411,216,0.0895893819991705,false,4,6,247.320692497939,164.880461665293
TN,OVERTON,36.396347,-85.324104,22807,22427,4048,0.180496722700317,false,75,149,653.308194852458,328.846406804928
GA,MONTGOMERY,32.172108,-82.533349,8675,7816,1279,0.16363868986694,false,60.5,303.5,3498.5590778098,697.406340057637
CO,GARFIELD,39.546738,-107.32647,62034,61058,5539,0.0907170231583085,false,165,842,1357.32017925654,265.983170519393
AR,SEARCY,35.90966,-92.699351,7861,7736,1896,0.245087900723888,false,25,29,368.909807912479,318.025696476275
ND,WELLS,47.580851,-99.671502,3942,3853,405,0.105112899039709,false,1,13,329.781836631152,25.3678335870117
OH,LAKE,41.58852,-81.432755,232101,229009,18731,0.0817915453104463,false,182,1526,657.472393483871,78.4141386723883
TX,FRIO,28.89319,-99.09486,18019,14491,2835,0.195638672279346,false,43,224,1243.13224929241,238.636994283812
IL,WINNEBAGO,42.270714,-89.09578,283289,279177,44717,0.160174369665123,false,1979,5209,1838.75829982809,698.579895442463
WY,GOSHEN,42.066048,-104.17981,12587,11660,1439,0.123413379073756,false,15,119,945.419877651545,119.17057281322
NE,JEFFERSON,40.175736,-97.143103,7155,6988,690,0.0987406983400115,false,8,70,978.336827393431,111.809923130678
MO,ST LOUIS CITY,38.625248,-90.19926,,,,,true,4070,18118,,
GA,WALKER,34.978447,-85.35674,68449,66637,9223,0.138406590932965,false,27,289,422.212157957019,39.445426521936
TN,SEVIER,35.758984,-83.39628,98802,97382,13285,0.136421515269762,false,322,1614,1633.57017064432,325.904333920366
IL,MENARD,40.022569,-89.794133,12169,12029,1174,0.0975974727741292,false,2,16,131.481633659298,16.4352042074123
CO,LAKE,39.25045,-106.29249,7411,7276,525,0.0721550302363936,false,27,72,971.528808527864,364.323303197949
IL,HENDERSON,40.815141,-90.93848,6284,6179,714,0.11555267842693,false,2,8,127.307447485678,31.8268618714195
SD,BUFFALO,44.044306,-99.203998,1757,1748,568,0.324942791762014,false,0,0,0,0
MS,WAYNE,31.673985,-88.64477,19699,19621,4484,0.228530655929871,false,51,140,710.695974414945,258.89639067973
WI,COLUMBIA,43.54133,-89.46112,58322,56873,4443,0.0781214284458355,false,71,336.5,576.969239738006,121.737937656459
WA,WAHKIAKUM,46.294638,-123.424458,4573,4543,714,0.157164869029276,false,11,33,721.626940739121,240.542313579707
WY,CAMPBELL,44.192361,-105.516978,47018,46237,4210,0.091052620195947,false,119,729,1550.47003275341,253.094559530393
AR,POLK,34.58666,-94.238434,19348,19040,3611,0.189653361344538,false,88,226,1168.07938805044,454.827372338226
KY,BRECKINRIDGE,37.778109,-86.432829,20722,20315,4331,0.213192222495693,false,6,84,405.366277386353,28.9547340990252
NM,CIBOLA,35.15374,-107.853935,27059,25480,7041,0.276334379905809,false,45,60,221.73768431945,166.303263239588
KS,NORTON,39.783867,-99.899235,5392,4397,375,0.0852854218785536,false,3,10,185.459940652819,55.6379821958457
GA,TAYLOR,32.554667,-84.251426,7786,7631,2242,0.293801598741974,false,21,34,436.681222707424,269.714872848703
IN,MARION,39.814747,-86.20089,971822,953481,144204,0.151239510803047,false,9958,33932.5,3491.63735745846,1024.67324263085
WV,HARRISON,39.279182,-80.386498,65407,64193,8708,0.135653420154846,false,118,930,1421.86616111425,180.408824743529
KY,UNMAPPED COUNTY,38.178093,-84.89988,,,,,true,0,0,,
NE,CLAY,40.523669,-98.05105,6084,5969,486,0.0814206734796448,false,1,4,65.7462195923734,16.4365548980934
WV,GILMER,38.34613,-81.63015,7376,5297,684,0.12912969605437,false,10,46,623.644251626898,135.574837310195
VT,WINDSOR,43.588143,-72.591514,57968,57133,4981,0.0871825389879754,false,98,443,764.214739166437,169.058791057135
NC,STANLY,35.310523,-80.254355,63557,61509,8765,0.142499471622039,false,142,814,1280.74012303916,223.421495665308
NC,WILSON,35.700351,-77.921602,78648,77254,16226,0.210034431874078,false,292.5,1535,1951.73430983623,371.910283796155
OK,CANADIAN,35.378815,-97.69633,162621,159392,13659,0.0856943886769725,false,2391.5,11525.5,7087.3380436721,1470.59727833429
OH,TUSCARAWAS,40.522636,-81.476204,92585,91329,11848,0.129728782752466,false,124,577,623.211103310472,133.930982340552
KS,STANTON,37.565932,-101.789383,2018,1988,256,0.128772635814889,false,0,0,0,0
TX,LIPSCOMB,36.2802,-100.272683,2964,2902,394,0.135768435561682,false,1,10,337.381916329285,33.7381916329285
LA,ST LANDRY,30.53644,-92.08239,,,,,true,402,1605,,
ME,AROOSTOOK,46.727057,-68.64941,67227,65298,9423,0.144307635762198,false,53,556,827.048656045934,78.8373718892707
MI,CRAWFORD,44.770985,-85.496765,13271,13067,1930,0.147700313767506,false,45,96,723.38180996157,339.085223419486
CO,MONTROSE,38.489193,-107.889206,43272,42825,5101,0.119112667834209,false,60,602,1391.19985209835,138.657792567942
NV,LANDER,39.90021,-117.04724,5745,5710,652,0.114185639229422,false,22,84,1462.1409921671,382.941688424717
SC,PICKENS,34.88538,-82.723376,132604,124590,21473,0.172349305722771,false,244.5,1737,1309.9152363428,184.383578172604
AL,COOSA,32.931445,-86.243482,10323,9986,1161,0.116262767875025,false,22,121,1172.1398818173,213.1163421486
KS,CHEYENNE,39.789256,-101.727302,2628,2590,451,0.174131274131274,false,3,23,875.190258751903,114.155251141553
SD,CODINGTON,44.89872,-97.113434,28556,28154,2867,0.101832776870072,false,72,429,1502.31124807396,252.136153522902
TX,BREWSTER,29.808997,-103.252458,9464,9121,767,0.0840916566165991,false,9,28,295.85798816568,95.0972104818259
IA,JOHNSON,41.668736,-91.588812,154881,146977,24608,0.167427556692544,false,383.5,2408,1554.74202775034,247.609455000936
UT,TOOELE,40.529606,-112.29857,76648,75917,3562,0.0469196622627343,false,242,1069,1394.68740215009,315.729047072331
MN,COOK,47.75116,-90.34013,5633,5572,628,0.112706389088299,false,11,51,905.379016509853,195.27782709036
IN,MORGAN,39.428463,-86.43792,72202,71031,6064,0.0853711759654236,false,0,0,0,0
NY,CHEMUNG,42.091324,-76.80329,82805,79307,12500,0.15761534290794,false,163,1318,1591.69132298774,196.848016424129
MO,SHELBY,39.797531,-92.088719,6011,5777,902,0.156136402977324,false,5,28,465.812676759275,83.1808351355848
CA,MENDOCINO,39.432667,-123.80412,90709,89200,13524,0.151614349775785,false,188,538,593.105425040514,207.256170832001
MN,HUBBARD,47.095551,-94.91329,21700,21413,2072,0.0967636482510624,false,39,173,797.235023041475,179.723502304147
CO,ARCHULETA,37.202395,-107.050863,13730,13606,1134,0.0833455828311039,false,34,79,575.382374362709,247.632920611799
ND,PIERCE,48.37129,-99.97709,3961,3803,463,0.121745990007889,false,3,28,706.892198939662,75.7384498863923
GA,CLAY,31.619831,-84.992583,2853,2794,644,0.230493915533286,false,16,19,665.96565019278,560.813179109709
CO,CONEJOS,37.213406,-106.176447,7536,7490,1032,0.137783711615487,false,0,31,411.35881104034,0
PA,PERRY,40.39778,-77.266328,45988,45426,3651,0.0803724739136178,false,67,344,748.02122292772,145.690180046969
PA,CENTRE,40.898014,-77.75188,158041,137695,23282,0.169083844729293,false,202,1114,704.880379142121,127.814934099379
LA,LINCOLN,32.52667,-92.63829,,,,,true,174,1092,,
AL,MONROE,31.580332,-87.383266,19580,19335,4371,0.226066718386346,false,72,196,1001.02145045965,367.722165474975
MO,SALINE,38.964317,-93.41781,23177,21627,3169,0.146529800712073,false,108,268,1156.31876429219,465.979203520732
KS,KEARNY,37.994461,-101.308136,3910,3826,232,0.0606377417668583,false,10,74,1892.5831202046,255.754475703325
VA,MANASSAS PARK CITY,38.78205,-77.47365,16923,16878,979,0.0580045029031876,false,42,176,1040.00472729422,248.18294628612
MT,CASCADE,47.316443,-111.350571,84601,82185,10839,0.131885380543895,false,432,3045,3599.24823583646,510.63226203
CO,SAGUACHE,38.031651,-106.234666,6511,6481,1142,0.17620737540503,false,10.5,68.5,1052.06573491015,161.265550606666
SC,CLARENDON,33.664682,-80.217889,31037,29659,5501,0.18547489800735,false,199,840,2706.44714373168,641.170216193575
IN,LAKE,41.553314,-87.448364,498990,493040,72010,0.146053058575369,false,1584,8101,1623.47942844546,317.4412312872
CO,ADAMS,39.859097,-105.01396,524408,520338,48994,0.0941580280509976,false,3995,21881,4172.51453067078,761.811414013516
IL,WABASH,38.409695,-87.76056,11199,10940,1541,0.140859232175503,false,15,38,339.316010358068,133.9405304045
TX,HARRISON,32.547991,-94.374434,69584,67262,11691,0.173812851238441,false,337,1881,2703.20763393884,484.306737180961
TN,PUTNAM,36.16286,-85.5155,81366,77737,13172,0.169443122322703,false,172,1169,1436.71803947595,211.390507091414
KS,SUMNER,37.032494,-97.60716,22386,21860,2351,0.107548032936871,false,76,413,1844.90306441526,339.49790047351
CO,DENVER,39.737377,-104.99167,713734,701727,78668,0.11210627494738,false,7311,41243,5778.48330050131,1024.33119341379
IL,WHITESIDE,41.66992,-89.93645,55192,53927,6509,0.120700205833812,false,98,516,934.918104073054,177.561965502247
ND,WARD,48.216686,-101.540537,69232,67484,5255,0.0778703099994073,false,229,785,1133.86873122256,330.771897388491
TX,TITUS,33.214599,-94.966783,31284,30945,5368,0.17346905800614,false,116,415,1326.55670630354,370.796573328219
SD,HARDING,45.596612,-103.473867,1092,1081,60,0.0555041628122109,false,0,0,0,0
MO,HARRISON,40.34562,-93.992582,8198,7943,1278,0.160896386755634,false,4,38,463.52768968041,48.7923883874116
NM,LOS ALAMOS,35.870047,-106.307968,19374,19266,564,0.029274369355341,false,15,79,407.762981315165,77.4233508826262
SD,CAMPBELL,45.782241,-100.027951,1481,1479,125,0.0845165652467884,false,0,0,0,0
GA,LIBERTY,31.846628,-81.59546,66826,64111,9289,0.144889332563835,false,218,793,1186.66387334271,326.220333403166
GA,DADE,34.852424,-85.506201,16196,15041,1280,0.0851007246858587,false,0,0,0,0
MI,MONTCALM,43.177235,-85.25318,67174,64443,7720,0.119795788526295,false,203,628,934.885521183791,302.200256051449
MI,CHARLEVOIX,45.222015,-85.01689,26143,25831,2239,0.0866787967945492,false,62,153,585.242703591784,237.157174004514
WV,MASON,38.444405,-81.831314,25214,24414,4366,0.178831817809454,false,17,123,487.824224637106,67.4228603156976
VA,WYTHE,36.901471,-81.084209,28219,27883,4354,0.156152494351397,false,29,387,1371.41642155994,102.767638824905
KY,CASEY,37.321962,-84.92822,15951,15511,3791,0.244407194893946,false,4,23,144.191586734374,25.0767976929346
IL,MARION,38.648396,-88.920221,37294,36135,5841,0.161643835616438,false,93.5,402,1077.92138145546,250.71057006489
IN,STARKE,41.298477,-86.622,23300,23086,3426,0.148401628692714,false,41,105,450.643776824034,175.965665236052
OH,MADISON,39.88523,-83.4463,44126,39326,3809,0.096857041143264,false,52.5,419.5,950.686669990482,118.977473598332
MO,SCHUYLER,40.469361,-92.519016,4044,4036,390,0.0966303270564916,false,17,35,865.479723046489,420.375865479723
LA,VERNON,31.110563,-93.18152,,,,,true,82.5,444.5,,
MO,LAFAYETTE,39.075752,-93.71704,32974,32508,3161,0.0972376030515565,false,73.5,291,882.513495481288,222.902893188573
WA,CLALLAM,48.110903,-123.88986,77593,76325,8225,0.10776285620701,false,227,1012,1304.24136197853,292.552163210599
WA,JEFFERSON,47.802641,-123.52181,33313,32792,4123,0.125731885825811,false,49,394,1182.72146009066,147.089724732087
CT,LOWER CONNECTICUT RIVER VALLEY PLANNING REGION,41.57564,-72.63865,174983,169707,11625,0.0685004154218742,false,66,1716,980.666693335924,37.7179497436894
AR,LONOKE,34.78607,-91.89906,74747,73846,8232,0.111475232240067,false,376,1219,1630.83468232839,503.030221948707
OK,DELAWARE,36.393375,-94.808217,41017,40412,7513,0.185910125705236,false,105,633,1543.26254967453,255.991418192457
KY,BELL,36.72268,-83.681046,23878,23125,6268,0.271048648648649,false,33,369,1545.35555741687,138.202529525086
TX,BAILEY,34.22386,-102.72415,7044,6823,927,0.135863989447457,false,9,38,539.46621237933,127.768313458262
NM,GRANT,32.732087,-108.381504,27856,27000,5273,0.195296296296296,false,24,52,186.674325100517,86.1573808156232
VA,KING WILLIAM,37.70826,-77.091054,18232,18121,1431,0.0789691518128139,false,27,74,405.87977182975,148.091268100044
WY,PARK,44.492387,-109.593597,30109,29352,2519,0.0858203870264377,false,48,286,949.882095054635,159.420771197981
NJ,MERCER,40.282503,-74.703724,383286,365249,40446,0.110735416113391,false,1331,6886,1796.56966338452,347.260270398606
IL,KANE,41.939594,-88.42804,516097,510174,42101,0.0825228255457942,false,574.5,3208,621.588577341081,111.316283566849
WV,JEFFERSON,38.34613,-81.63015,58546,57210,5038,0.0880615277049467,false,49,381,650.770334437878,83.694872408021
IL,PUTNAM,41.19894,-89.298386,5600,5580,555,0.0994623655913978,false,0,14,250,0
NE,SCOTTS BLUFF,41.851589,-103.70586,35937,35061,4881,0.139214511850774,false,49,757,2106.46408993516,136.349723126583
MS,WASHINGTON,33.273131,-90.94443,43674,42813,12339,0.28820685305865,false,0,0,0,0
WV,DODDRIDGE,38.34613,-81.63015,7767,6654,966,0.145175834084761,false,24,45,579.374275782155,308.999613750483
NM,UNION,36.488085,-103.475723,4039,3608,702,0.194567627494457,false,4,4,99.0344144590245,99.0344144590245
OH,PIKE,39.125317,-82.98343,27080,26651,5309,0.199204532662939,false,49,276,1019.2023633678,180.945347119646
GA,CALHOUN,31.521279,-84.62629,5528,3813,866,0.227117755048518,false,7,22.5,407.018813314038,126.628075253256
MN,MURRAY,44.015594,-95.761581,8119,7999,647,0.0808851106388299,false,10,21,258.652543416677,123.167877817465
PA,INDIANA,40.43105,-79.26049,83213,77986,9985,0.128035801297669,false,83,586,704.216889187988,99.7440303798685
MD,HOWARD,39.276688,-76.80677,333916,330837,16915,0.0511278968192796,false,482,5659,1694.73759867751,144.347680254914
TN,BLOUNT,35.688185,-83.922973,137747,135649,12046,0.0888027187815612,false,408,992,720.160874646998,296.195198443523
PA,LEHIGH,40.514797,-75.55704,375408,366220,43403,0.118516192452624,false,616.5,5451,1452.0202020202,164.221327196011
MO,PEMISCOT,36.209916,-89.785942,15232,15021,4109,0.273550362825378,false,101,286,1877.62605042017,663.077731092437
AK,NOME,64.783686,-164.188912,,,,,true,55,29,,
NH,COOS,44.652419,-71.289383,31386,29416,3782,0.128569485994017,false,40,219,697.76333397056,127.445357802842
OH,CLARK,39.917032,-83.783676,135445,132172,20582,0.155721332808764,false,766,3159,2332.31200856436,565.543209420798
LA,WINN,31.923979,-92.63959,,,,,true,51,133,,
MO,LACLEDE,37.65969,-92.594832,36245,35727,6632,0.185629915749993,false,69.5,495.5,1367.0851151883,191.750586287764
AR,FULTON,36.383447,-91.819245,12239,12078,1782,0.147540983606557,false,51.5,151,1233.76092818041,420.786011929079
OK,CARTER,34.251848,-97.287927,48255,47388,7150,0.150882079851439,false,350,1181,2447.41477567092,725.313439021863
KS,COFFEY,38.189747,-95.73726,8304,8183,782,0.0955639740926311,false,14,87,1047.68786127168,168.59344894027
VA,FRANKLIN CITY,36.662148,-76.91937,8212,8032,1340,0.166832669322709,false,42,340,4140.28251339503,511.446663419386
AL,LAWRENCE,34.529776,-87.321865,33182,32794,4506,0.137403183509179,false,41.5,226,681.092158399132,125.067807847628
UT,WAYNE,38.261229,-110.990322,2557,2538,231,0.091016548463357,false,0,0,0,0
AR,IZARD,36.094879,-91.913625,13866,12770,2692,0.210806577916993,false,72,80,576.950814943026,519.255733448724
AR,ASHLEY,33.190835,-91.772267,18722,18555,4215,0.227162489894907,false,54,274,1463.5188548232,288.430723213332
WY,ALBANY,41.665514,-105.721883,37713,34974,7328,0.209527077257391,false,63,605,1604.22135603108,167.051149471005
OK,MAJOR,36.313119,-98.542015,7656,7497,855,0.114045618247299,false,13,65,849.007314524556,169.801462904911
MI,OSCODA,44.685121,-84.124894,8338,8258,1302,0.157665294260111,false,30,47,563.684336771408,359.798512832814
TX,TRINITY,31.087483,-95.153291,13850,13618,2194,0.161110295197533,false,22,112,808.664259927798,158.84476534296
MT,HILL,48.550076,-109.67535,16260,15883,3122,0.19656236227413,false,110,576,3542.43542435424,676.506765067651
VA,FREDERICK,39.203637,-78.263916,93355,91486,6479,0.0708195789519708,false,48,876,938.35359648653,51.4166354239194
IA,CERRO GORDO,43.15112,-93.19622,42785,41878,3918,0.093557476479297,false,84,991,2316.23232441276,196.33048965759
NC,ORANGE,35.910347,-79.07226,147292,135916,16892,0.124282645163189,false,1219,8505.5,5774.58381989517,827.607745159276
TN,POLK,35.109437,-84.541112,17702,17343,2314,0.133425589575045,false,49,234,1321.88453282115,276.804880804429
TX,WHARTON,29.27848,-96.229674,41651,40938,5927,0.144779911085055,false,158,773,1855.89781757941,379.342632829944
TX,WEBB,27.770584,-99.326641,267731,264700,55716,0.210487344163204,false,1163,3744,1398.41856191476,434.391235979397
MI,DICKINSON,45.812214,-88.09777,25940,25588,2505,0.0978974519305925,false,6,24,92.5212027756361,23.130300693909
SC,LEXINGTON,33.892556,-81.272851,300370,297360,34010,0.1143731503901,false,1523,8603.5,2864.3006958085,507.041315710624
NE,GOSPER,40.509838,-99.824078,1929,1895,133,0.0701846965699208,false,0,0,0,0
NV,ELKO,41.141133,-115.351424,53852,52861,5829,0.110270331624449,false,194,601,1116.02168907376,360.246601797519
TX,VAL VERDE,29.884961,-101.146646,47647,45829,8377,0.182788190883502,false,99,694,1456.54500808026,207.77803429387
MO,WEBSTER,37.280804,-92.87608,39868,38728,6237,0.161046271431522,false,99.5,364,913.012942710946,249.573592856426
IL,CLARK,39.332364,-87.791687,15328,15023,1425,0.0948545563469347,false,15.5,112,730.688935281837,101.122129436326
TX,ANDERSON,31.765324,-95.61932,57825,46763,7975,0.17054081218057,false,87.5,312,539.559014267186,151.318633808906
NE,RICHARDSON,40.123743,-95.718603,7797,7667,811,0.105778009651754,false,11,48,615.621392843401,141.079902526613
KY,MERCER,37.7669,-84.84166,22824,22528,2557,0.113503196022727,false,27,132,578.338590956888,118.296529968454
KY,LAUREL,37.127853,-84.083916,62731,61218,13047,0.213123591100657,false,44,724,1154.13431955493,70.1407597519568
AL,BULLOCK,32.13935,-85.716125,10157,9138,2344,0.256511271613044,false,51,89,876.242985133406,502.116766761839
MS,BOLIVAR,33.799278,-90.884476,30163,27895,9404,0.337121347911812,false,131,486,1611.24556575937,434.306932334317
OK,CUSTER,35.645601,-98.997386,28332,26782,4408,0.16458815622433,false,38,186.5,658.266271353946,134.123958774531
AK,VALDEZ-CORDOVA,61.34984,-145.023141,,,,,true,10,25,,
WA,YAKIMA,46.456558,-120.740145,256605,253339,39074,0.154236023667892,false,860,5278,2056.85781648838,335.145457025389
MN,WADENA,46.437492,-95.1396,14135,13797,1570,0.113792853518881,false,17.5,83,587.194906261054,123.80615493456
IN,LA PORTE,41.549013,-86.744739,,,,,true,226,1409,,
NY,SCHUYLER,42.380924,-76.87368,17749,17605,2663,0.151263845498438,false,15,52,292.974252070539,84.5118034818863
IA,WINNEBAGO,43.26245,-93.63843,10648,10050,988,0.0983084577114428,false,0,0,0,0
NY,ALLEGANY,42.247871,-78.026115,47027,42233,7095,0.167996590344044,false,88,328,697.471665213601,187.1265443256
MI,LIVINGSTON,42.659294,-84.0731,195143,193739,9525,0.0491640815736635,false,205,982,503.220715065362,105.051167605295
KY,BRACKEN,38.677557,-84.10468,8427,8330,1675,0.201080432172869,false,3,32,379.731814406076,35.5998576005696
IN,HENDRICKS,39.76266,-86.407646,179379,174882,8738,0.0499651193376105,false,171,2101,1171.2630798477,95.3288846520496
MO,SHANNON,37.15198,-91.398364,7137,6913,1155,0.167076522493852,false,25,41,574.471066274345,350.287235533137
NE,DUNDY,40.180165,-101.681133,1811,1783,214,0.120022434099832,false,0,5,276.090557702927,0
GA,MILLER,31.17431,-84.73826,5873,5718,1377,0.240818467995803,false,0,0,0,0
CT,SOUTH CENTRAL CONNECTICUT PLANNING REGION,41.349717,-72.900204,566803,547777,63456,0.115842760831506,false,1474,14414,2543.03523446418,260.055080865839
VA,PULASKI,37.063385,-80.713444,33771,32454,4743,0.146145313366611,false,81,762,2256.3738118504,239.850759527405
MI,LAPEER,43.024063,-83.073044,88703,87021,8509,0.0977809953919169,false,166,445.5,502.237804809308,187.141359367778
TN,GILES,35.202723,-87.035319,30442,29593,4232,0.143006792146791,false,96,429,1409.23723802641,315.353787530386
AL,LEE,32.604064,-85.353048,177663,170219,32119,0.188692214147657,false,722,3394.5,1910.63980682528,406.387373848241
NM,UNMAPPED COUNTY,35.513731,-105.966439,,,,,true,238,654,,
IL,LAWRENCE,38.718954,-87.730221,15137,13440,1974,0.146875,false,10,18,118.913919534914,66.063288630508
ID,ONEIDA,42.186516,-112.244606,4681,4639,549,0.118344470791119,false,10,24,512.710959196753,213.62956633198
KS,GEARY,39.002155,-96.768038,35895,34821,6709,0.192671089285201,false,178,741,2064.35436690347,495.890792589497
